~Version Information
 VERS.                  2.0:   CWLS log ASCII Standard -VERSION 2.0
 WRAP.                   NO:   One line per depth step
~Well Information Block
#MNEM.UNIT     VALUE/NAME     DESCRIPTION
#---------     -----------    ---------------------------
 STRT.M               914.0952: START DEPTH
 STOP.M              1646.9868: STOP DEPTH
 STEP.M                 0.1524: STEP DEPTH
 NULL.                 -999.25: NULL VALUE
 WTYP.                Deviated:  WELL TYPE
 DFWT.                        :  DIST FWL TEXT
 DFST.                        :  DIST FSL TEXT
 DMF .             Drill Floor:  DRILL MEAS FROM
 NREF.                    Grid:  NORTH REFERENCE
 HPTY.       Minimum Curvature:  HOLE POS TYPE
 DMOD.             Drill Model:  DRILL MOD DESC
 SVYD.                  Survey:  SURVEY DESC
 ILTD.               Lithology:  INTERP LTH DESC
 FTOP.          Formation Tops:  FORM TOPS DESC
 SON .        IN-XX-0907787982:  JOB NUMBER
 PDAT.          Mean Sea Level:  PERMANENT DATUM
 UWI .                      NA:  UNIQUE WELL IDENTIFIER
 API .                      NA:  API NUMBER
 MWDS.                  Taloja:  MWD SHOP
 JOBN.        IN-XX-0907787982:  JOB TICKET NUMB
 RIG .                   VG_9:  RIG NAME
 DOE .                      NA:  DOE NUMBER
 CNTY.                       .:  COUNTY NAME
 DCON.         Sperry Drilling:  DIRECTNL CONTR
 UNIT.                11175629:  LOGGING EQUIPMENT ID
 GCDE.     Generic Lat/Long's, Degrees, -180 ==> +180:  GEO COORD DESC
 CCDE.     Indian 1975 (Zone 2A) Thailand CM 74:  CART COORD DESC
 GGSY.                      LL:  GEO GRID SYS
 CGSY.          SS INDIAN-CM74:  CART GRID SYS
 GREF.     Ellipsoid World Geodetic System :  GEO REFERENCE
 MMDL.            bggm2021.dat:  MAGNETIC MODEL
 MMDD.          05 April, 2022:  MAG DATA DATE
 MDS .              Win MagUTM:  MAG DATA SOURCE
 LLGR.      Latitude/Longitude:  LLGROUP
 XYGR.     Asian Coordinate Systems:  XYGROUP
 LOC .                        :  LOCATION
 TVDS.m                  64.55:  TVDSS CORRECTN
 LATI.deg                25.30:  LATITUDE
 LONG.deg                71.77:  LONGITUDE
 WHNS.m                   0.00:  WELL HEAD N/S
 WHEW.m                   0.00:  WELL HEAD E/W
 UTMX.m             2051879.80:  UTM X
 UTMY.m              878801.73:  UTM Y
 DFWL.m                   0.00:  DISTANCE FWL
 DFSL.m                   0.00:  DISTANCE FSL
 SDEP.m                   0.00:  START DEPTH
 TDD .m                   0.00:  TOTAL DEPTH (DRILLER)
 VSDR.deg               350.40:  VERT SEC DIRECT
 GVFD.g                   1.00:  GRAVITY FIELD
 MFLD.nT              45311.10:  MAGNETIC FIELD
 MDIP.deg                40.06:  MAGNETIC DIP
 MDEC.deg                 1.01:  MAGNETIC DECL
 GRDC.deg                -0.98:  GRID CORRECTION
 AZTC.deg                 1.99:  AZM TOTAL CORR
 EPD .m                   0.00:  ELEVATION
 EGL .m                  57.80:  GROUND ELEVATION
 WDMS.m                   0.00:  WD ELEV
 APD .m                  64.55:  DEPTH ABOVE PD
 AGAP.m                   6.75:  AIR GAP
 MMDE.m                   0.00:  MAGUTM CALC DEP
 CMER.deg                74.00:  CENTRL MERIDIAN
 DEP .m                 915.49:  DEPTH
 VSC .                       0:  VS TO CLOSURE
 MAGU.                 1603544:  MAGUTM CHECKSUM
~Curve Information Block
#MNEM.UNIT                 API CODE     Curve Description
#---------               -----------    ---------------------------
 DEPT.M                 00 000 000 000:  Depth
 TVD .m                 00 000 000 000:  True Vertical Depth
 SROP.m/hr              00 000 000 000:  Smoothed Rate of Penetration
 SGRC.api               00 000 000 000:  Smoothed Gamma Ray Combined Borehole Corrected
 ABG .api               00 000 000 000:  Smoothed At Bit Gamma Ray Combined BC
 SFXE.hr                00 000 000 000:  Smoothed Formation Exposure Time
 SEXP.ohmm              00 000 000 000:  Smoothed BC Extra Shallow Phase Resistivity
 SEXA.ohmm              00 000 000 000:  Smoothed BC Extra Shallow Attenuation Resistivity
 SESP.ohmm              00 000 000 000:  Smoothed BC Shallow Phase Resistivity
 SESA.ohmm              00 000 000 000:  Smoothed BC Shallow Attenuation Resistivity
 SEMP.ohmm              00 000 000 000:  Smoothed BC Medium Phase Resistivity
 SEMA.ohmm              00 000 000 000:  Smoothed BC Medium Attenuation Resistivity
 SEDP.ohmm              00 000 000 000:  Smoothed BC Deep Phase Resistivity
 SEDA.ohmm              00 000 000 000:  Smoothed BC Deep Attenuation Resistivity
 ALCDTQ.g/cc            00 000 000 000:  ALD Comp Density T-Quad
 ALCDRQ.g/cc            00 000 000 000:  ALD Comp Density R-Quad
 ALCDBQ.g/cc            00 000 000 000:  ALD Comp Density B-Quad
 ALCDLQ.g/cc            00 000 000 000:  ALD Comp Density L-Quad
 HSI .in                00 000 000 000:  ALD Hole Size Indicator
 SBD2.g/cc              00 000 000 000:  Smoothed Bulk Density
 SCO2.g/cc              00 000 000 000:  Smoothed Standoff Correction
 TNPS.pu                00 000 000 000:  CTN Porosity Sandstone
 PAP .psig              00 000 000 000:  Smoothed PWD Annular Pressure
 ECD .ppg               00 000 000 000:  Smoothed Equivalent Circulating Density
 TEMP.degC              00 000 000 000:  Temperature
#Other Information

#
~A   DEPT      TVD    SROP    SGRC     ABG    SFXE    SEXP    SEXA    SESP    SESA    SEMP    SEMA    SEDP    SEDA   ALCDTQ  ALCDRQ  ALCDBQ  ALCDLQ    HSI    SBD2    SCO2     TNPS     PAP     ECD    TEMP   
# ...
   1300.4292 1130.87   18.55   75.76   75.86    1.34    1.25    1.46    1.24    1.50    1.26    1.51    1.33    1.45    2.31    2.30    2.30    2.30    8.83    2.30    0.03    48.85 2326.53   12.06   55.54
   1300.5816 1131.00   18.78   78.87   78.85    1.34    1.27    1.46    1.25    1.51    1.28    1.51    1.35    1.42    2.31    2.30    2.30    2.30    8.83    2.30    0.03    49.74 2326.77   12.06   55.54
   1300.7340 1131.14   18.78   79.75   73.12    1.34    1.28    1.47    1.26    1.53    1.28    1.54    1.34    1.42    2.32    2.30    2.31    2.31    8.83    2.31    0.03    48.62 2327.28   12.06   55.54
   1300.8864 1131.26   18.60   76.07   72.04    1.34    1.29    1.48    1.27    1.52    1.28    1.54    1.35    1.49    2.32    2.31    2.31    2.30    8.83    2.31    0.03    48.78 2327.48   12.06   55.54
   1301.0388 1131.40   18.71   81.24   74.92    1.34    1.30    1.50    1.28    1.53    1.29    1.55    1.35    1.49    2.32    2.31    2.30    2.31    8.83    2.30    0.03    49.86 2327.95   12.06   55.54
   1301.1912 1131.53   18.59   79.33   71.36    1.34    1.31    1.50    1.29    1.54    1.30    1.56    1.37    1.50    2.32    2.31    2.30    2.30    8.83    2.31    0.03    49.11 2327.98   12.06   55.54
   1301.3436 1131.67   18.57   76.29   71.75    1.34    1.31    1.49    1.29    1.55    1.30    1.58    1.37    1.47    2.30    2.32    2.29    2.31    8.83    2.30    0.03    48.80 2328.29   12.06   55.54
   1301.4960 1131.79   18.14   75.81   74.76    1.35    1.31    1.52    1.29    1.57    1.31    1.59    1.38    1.50    2.31    2.31    2.29    2.30    8.83    2.31    0.03    51.72 2328.76   12.06   55.54
   1301.6484 1131.93   18.08   79.36   77.23    1.35    1.33    1.53    1.31    1.59    1.33    1.61    1.39    1.48    2.31    2.31    2.31    2.31    8.83    2.31    0.03    49.06 2329.34   12.06   55.54
   1301.8008 1132.06   19.21   80.43   73.09    1.35    1.37    1.56    1.35    1.61    1.36    1.61    1.42    1.53    2.33    2.31    2.33    2.31    8.83    2.31    0.03    49.12 2330.00   12.06   55.54
   1301.9532 1132.19   19.10   85.00   76.95    1.35    1.41    1.59    1.38    1.62    1.39    1.61    1.44    1.53    2.35    2.33    2.33    2.35    8.83    2.33    0.03    47.99 2329.88   12.06   55.54
   1302.1056 1132.32   18.55   84.57   73.70    1.35    1.42    1.59    1.41    1.63    1.42    1.61    1.47    1.50    2.36    2.36    2.36    2.35    8.68    2.35    0.01    49.29 2330.00   12.06   55.54
   1302.2580 1132.46   18.58   80.63   75.18    1.35    1.41    1.60    1.40    1.64    1.41    1.63    1.47    1.51    2.35    2.38    2.37    2.38    8.55    2.37   -0.01    50.66 2330.54   12.06   55.54
   1302.4104 1132.59   18.46   81.38   73.29    1.35    1.38    1.59    1.37    1.65    1.40    1.64    1.46    1.54    2.38    2.37    2.37    2.39    8.74    2.38    0.02    50.34 2330.14   12.06   55.54
   1302.5628 1132.72   18.66   78.82   74.22    1.36    1.36    1.58    1.34    1.65    1.38    1.65    1.44    1.49    2.37    2.34    2.35    2.37    8.81    2.36    0.03    51.32 2330.45   12.06   55.54
   1302.7152 1132.85   18.80   75.66   72.40    1.36    1.33    1.56    1.32    1.61    1.36    1.63    1.43    1.51    2.34    2.31    2.31    2.35    8.83    2.33    0.03    51.29 2330.93   12.06   55.54
   1302.8676 1132.99   18.51   78.18   74.38    1.36    1.30    1.53    1.29    1.59    1.32    1.61    1.40    1.54    2.31    2.30    2.31    2.31    8.83    2.31    0.03    49.83 2330.93   12.06   55.54
   1303.0200 1133.12   18.47   82.43   75.56    1.36    1.28    1.49    1.28    1.57    1.29    1.61    1.39    1.54    2.30    2.29    2.29    2.30    8.84    2.30    0.03    48.94 2331.58   12.06   55.54
   1303.1724 1133.24   17.36   71.10   75.95    1.37    1.27    1.51    1.25    1.55    1.27    1.59    1.37    1.55    2.31    2.28    2.27    2.28    8.84    2.29    0.03    51.85 2332.27   12.06   55.54
   1303.3248 1133.38   17.80   76.48   75.41    1.37    1.27    1.48    1.24    1.55    1.27    1.58    1.36    1.57    2.31    2.29    2.29    2.30    8.84    2.30    0.03    51.62 2332.46   12.06   55.54
   1303.4772 1133.52   20.14   76.46   77.42    1.37    1.28    1.50    1.27    1.54    1.29    1.57    1.38    1.59    2.30    2.30    2.28    2.30    8.84    2.29    0.03    49.81 2332.83   12.06   55.54
   1303.6296 1133.65   19.54   75.39   70.92    1.38    1.31    1.51    1.30    1.56    1.32    1.56    1.40    1.55    2.28    2.28    2.29    2.29    8.83    2.29    0.03    49.42 2333.13   12.06   55.54
   1303.7820 1133.78   18.68   79.16   73.63    1.38    1.32    1.52    1.31    1.57    1.32    1.57    1.39    1.52    2.31    2.30    2.29    2.31    8.83    2.30    0.03    49.58 2334.11   12.07   55.54
   1303.9344 1133.91   18.23   83.32   79.52    1.38    1.37    1.53    1.35    1.58    1.37    1.58    1.42    1.49    2.29    2.28    2.32    2.31    8.84    2.29    0.03    48.44 2334.77   12.07   55.54
   1304.0868 1134.04   17.37   81.85   75.03    1.38    1.42    1.53    1.39    1.55    1.43    1.52    1.47    1.47    2.31    2.29    2.33    2.33    8.84    2.31    0.03    48.40 2335.37   12.07   55.54
   1304.2392 1134.18   18.82   78.67   74.34    1.39    1.37    1.52    1.33    1.53    1.32    1.51    1.36    1.49    2.34    2.29    2.33    2.35    8.82    2.33    0.03    51.61 2336.24   12.07   55.54
   1304.3916 1134.31   20.02   75.95   72.30    1.39    1.29    1.50    1.27    1.52    1.26    1.52    1.30    1.50    2.33    2.28    2.28    2.33    8.82    2.31    0.03    50.14 2336.70   12.07   55.54
   1304.5440 1134.44   18.68   81.21   74.99    1.39    1.26    1.48    1.25    1.53    1.25    1.54    1.31    1.48    2.29    2.27    2.28    2.30    8.83    2.28    0.03    50.37 2337.39   12.08   55.54
   1304.6964 1134.58   18.69   81.48   74.59    1.40    1.27    1.45    1.26    1.51    1.27    1.53    1.32    1.47    2.28    2.27    2.28    2.28    8.84    2.28    0.03    49.76 2338.08   12.08   55.54
   1304.8488 1134.71   18.73   73.13   73.85    1.40    1.28    1.45    1.26    1.50    1.27    1.53    1.33    1.47    2.29    2.29    2.28    2.29    8.84    2.29    0.03    50.48 2338.53   12.08   55.54
   1305.0012 1134.83   17.70   76.41   71.11    1.40    1.28    1.48    1.26    1.48    1.27    1.50    1.32    1.45    2.28    2.29    2.29    2.30    8.84    2.29    0.03    50.00 2338.57   12.08   55.54
   1305.1536 1134.97   18.52   82.88   72.20    1.40    1.27    1.45    1.25    1.47    1.25    1.48    1.30    1.45    2.29    2.29    2.30    2.30    8.84    2.29    0.03    52.02 2339.04   12.08   55.54
   1305.3060 1135.10   18.85   84.72   73.70    1.40    1.23    1.41    1.21    1.46    1.21    1.48    1.26    1.45    2.29    2.29    2.30    2.30    8.84    2.29    0.03    50.93 2339.34   12.08   55.54
   1305.4584 1135.23   17.84   84.89   74.45    1.40    1.21    1.41    1.19    1.46    1.19    1.48    1.26    1.52    2.30    2.31    2.30    2.31    8.84    2.29    0.03    48.87 2339.75   12.08   55.54
   1305.6108 1135.37   17.39   78.18   68.59    1.40    1.19    1.42    1.18    1.48    1.19    1.53    1.27    1.53    2.30    2.30    2.27    2.29    8.84    2.29    0.03    47.71 2340.39   12.08   55.54
   1305.7632 1135.53   15.69   70.09   72.97    1.40    1.23    1.47    1.22    1.55    1.23    1.61    1.31    1.55    2.28    2.29    2.28    2.30    8.84    2.29    0.03    50.40 2340.84   12.08   55.54
   1305.9156 1135.63   10.82   78.44   72.60    1.38    1.37    1.51    1.34    1.58    1.38    1.60    1.43    1.57    2.31    2.34    2.34    2.30    8.84    2.32    0.03    49.80 2341.58   12.09   55.54
   1306.0680 1135.77    7.21   78.45   73.47    1.33    1.43    1.51    1.39    1.53    1.42    1.51    1.47    1.52    2.32    2.44    2.35    2.33    8.84    2.39    0.03    50.30 2341.99   12.09   55.54
   1306.2204 1135.91    6.69   71.82   73.55    1.22    1.36    1.53    1.32    1.55    1.29    1.55    1.36    1.51    2.36    2.44    2.30    2.33    9.12    2.43    0.05    48.44 2342.32   12.09   55.54
