~Version Information
 VERS.                  2.0:   CWLS log ASCII Standard -VERSION 2.0
 WRAP.                   NO:   One line per depth step
~Well Information Block
#MNEM.UNIT     VALUE/NAME     DESCRIPTION
#---------     -----------    ---------------------------
 STRT.M               914.0952: START DEPTH
 STOP.M              1646.9868: STOP DEPTH
 STEP.M                 0.1524: STEP DEPTH
 NULL.                 -999.25: NULL VALUE
 WTYP.                Deviated:  WELL TYPE
 DFWT.                        :  DIST FWL TEXT
 DFST.                        :  DIST FSL TEXT
 DMF .             Drill Floor:  DRILL MEAS FROM
 NREF.                    Grid:  NORTH REFERENCE
 HPTY.       Minimum Curvature:  HOLE POS TYPE
 DMOD.             Drill Model:  DRILL MOD DESC
 SVYD.                  Survey:  SURVEY DESC
 ILTD.               Lithology:  INTERP LTH DESC
 FTOP.          Formation Tops:  FORM TOPS DESC
 SON .        IN-XX-0907787982:  JOB NUMBER
 PDAT.          Mean Sea Level:  PERMANENT DATUM
 UWI .                      NA:  UNIQUE WELL IDENTIFIER
 API .                      NA:  API NUMBER
 MWDS.                  Taloja:  MWD SHOP
 JOBN.        IN-XX-0907787982:  JOB TICKET NUMB
 RIG .                   VG_9:  RIG NAME
 DOE .                      NA:  DOE NUMBER
 CNTY.                       .:  COUNTY NAME
 DCON.         Sperry Drilling:  DIRECTNL CONTR
 UNIT.                11175629:  LOGGING EQUIPMENT ID
 GCDE.     Generic Lat/Long's, Degrees, -180 ==> +180:  GEO COORD DESC
 CCDE.     Indian 1975 (Zone 2A) Thailand CM 74:  CART COORD DESC
 GGSY.                      LL:  GEO GRID SYS
 CGSY.          SS INDIAN-CM74:  CART GRID SYS
 GREF.     Ellipsoid World Geodetic System :  GEO REFERENCE
 MMDL.            bggm2021.dat:  MAGNETIC MODEL
 MMDD.          05 April, 2022:  MAG DATA DATE
 MDS .              Win MagUTM:  MAG DATA SOURCE
 LLGR.      Latitude/Longitude:  LLGROUP
 XYGR.     Asian Coordinate Systems:  XYGROUP
 LOC .                        :  LOCATION
 TVDS.m                  64.55:  TVDSS CORRECTN
 LATI.deg                25.30:  LATITUDE
 LONG.deg                71.77:  LONGITUDE
 WHNS.m                   0.00:  WELL HEAD N/S
 WHEW.m                   0.00:  WELL HEAD E/W
 UTMX.m             2051879.80:  UTM X
 UTMY.m              878801.73:  UTM Y
 DFWL.m                   0.00:  DISTANCE FWL
 DFSL.m                   0.00:  DISTANCE FSL
 SDEP.m                   0.00:  START DEPTH
 TDD .m                   0.00:  TOTAL DEPTH (DRILLER)
 VSDR.deg               350.40:  VERT SEC DIRECT
 GVFD.g                   1.00:  GRAVITY FIELD
 MFLD.nT              45311.10:  MAGNETIC FIELD
 MDIP.deg                40.06:  MAGNETIC DIP
 MDEC.deg                 1.01:  MAGNETIC DECL
 GRDC.deg                -0.98:  GRID CORRECTION
 AZTC.deg                 1.99:  AZM TOTAL CORR
 EPD .m                   0.00:  ELEVATION
 EGL .m                  57.80:  GROUND ELEVATION
 WDMS.m                   0.00:  WD ELEV
 APD .m                  64.55:  DEPTH ABOVE PD
 AGAP.m                   6.75:  AIR GAP
 MMDE.m                   0.00:  MAGUTM CALC DEP
 CMER.deg                74.00:  CENTRL MERIDIAN
 DEP .m                 915.49:  DEPTH
 VSC .                       0:  VS TO CLOSURE
 MAGU.                 1603544:  MAGUTM CHECKSUM
~Curve Information Block
#MNEM.UNIT                 API CODE     Curve Description
#---------               -----------    ---------------------------
 DEPT.M                 00 000 000 000:  Depth
 TVD .m                 00 000 000 000:  True Vertical Depth
 SROP.m/hr              00 000 000 000:  Smoothed Rate of Penetration
 SGRC.api               00 000 000 000:  Smoothed Gamma Ray Combined Borehole Corrected
 ABG .api               00 000 000 000:  Smoothed At Bit Gamma Ray Combined BC
 SFXE.hr                00 000 000 000:  Smoothed Formation Exposure Time
 SEXP.ohmm              00 000 000 000:  Smoothed BC Extra Shallow Phase Resistivity
 SEXA.ohmm              00 000 000 000:  Smoothed BC Extra Shallow Attenuation Resistivity
 SESP.ohmm              00 000 000 000:  Smoothed BC Shallow Phase Resistivity
 SESA.ohmm              00 000 000 000:  Smoothed BC Shallow Attenuation Resistivity
 SEMP.ohmm              00 000 000 000:  Smoothed BC Medium Phase Resistivity
 SEMA.ohmm              00 000 000 000:  Smoothed BC Medium Attenuation Resistivity
 SEDP.ohmm              00 000 000 000:  Smoothed BC Deep Phase Resistivity
 SEDA.ohmm              00 000 000 000:  Smoothed BC Deep Attenuation Resistivity
 ALCDTQ.g/cc            00 000 000 000:  ALD Comp Density T-Quad
 ALCDRQ.g/cc            00 000 000 000:  ALD Comp Density R-Quad
 ALCDBQ.g/cc            00 000 000 000:  ALD Comp Density B-Quad
 ALCDLQ.g/cc            00 000 000 000:  ALD Comp Density L-Quad
 HSI .in                00 000 000 000:  ALD Hole Size Indicator
 SBD2.g/cc              00 000 000 000:  Smoothed Bulk Density
 SCO2.g/cc              00 000 000 000:  Smoothed Standoff Correction
 TNPS.pu                00 000 000 000:  CTN Porosity Sandstone
 PAP .psig              00 000 000 000:  Smoothed PWD Annular Pressure
 ECD .ppg               00 000 000 000:  Smoothed Equivalent Circulating Density
 TEMP.degC              00 000 000 000:  Temperature
#Other Information

#
~A   DEPT      TVD    SROP    SGRC     ABG    SFXE    SEXP    SEXA    SESP    SESA    SEMP    SEMA    SEDP    SEDA   ALCDTQ  ALCDRQ  ALCDBQ  ALCDLQ    HSI    SBD2    SCO2     TNPS     PAP     ECD    TEMP   
# ...
   1021.0800  891.22   19.91   62.84   62.37    0.48    5.54    6.62    5.50    7.03    5.58    6.68    5.84    7.26    2.30    2.31    2.32    2.30    8.92    2.31    0.03    39.14 1812.42   11.92   51.27
   1021.2324  891.34   24.33   58.36   62.94    0.48    5.70    6.59    5.64    7.04    5.67    6.77    5.95    7.15    2.31    2.29    2.31    2.32    8.85    2.31    0.03    38.59 1812.52   11.92   51.27
   1021.3848  891.48   20.59   53.16   64.08    0.48    5.87    6.88    5.76    6.92    5.72    6.68    5.95    6.85    2.35    2.31    2.30    2.34    8.85    2.32    0.03    38.16 1813.22   11.92   51.27
   1021.5372  891.58   17.84   55.04   54.72    0.48    5.89    6.70    5.76    6.99    5.68    6.71    5.96    7.18    2.34    2.36    2.37    2.38    8.85    2.35    0.03    37.98 1812.89   11.92   51.27
   1021.6896  891.74   19.69   62.62   55.49    0.48    5.89    6.77    5.75    7.11    5.71    6.88    5.94    7.10    2.36    2.38    2.39    2.42    8.85    2.39    0.03    36.88 1813.29   11.92   51.27
   1021.8420  891.84   23.48   56.93   50.49    0.48    5.89    6.88    5.87    7.33    5.81    6.81    6.04    7.27    2.39    2.37    2.36    2.39    8.85    2.38    0.03    37.69 1813.76   11.92   51.27
   1021.9944  891.98   22.95   59.37   56.53    0.48    6.06    6.91    6.07    7.41    6.04    6.88    6.19    7.42    2.33    2.32    2.33    2.34    8.74    2.33    0.01    36.45 1813.35   11.92   51.27
   1022.1468  892.11   24.12   57.59   59.59    0.48    6.54    6.73    6.43    7.21    6.37    6.82    6.40    7.15    2.32    2.31    2.32    2.34    8.63    2.32   -0.00    37.21 1813.59   11.92   51.27
   1022.2992  892.24   24.51   51.44   52.67    0.48    6.59    7.02    6.28    7.30    6.17    6.75    6.21    6.95    2.41    2.41    2.46    2.41    8.63    2.39   -0.00    37.80 1813.76   11.92   51.27
   1022.4516  892.36   22.84   53.32   54.59    0.48    6.35    7.02    6.00    7.13    5.83    6.69    5.92    6.87    2.55    2.53    2.47    2.51    8.63    2.53   -0.00    37.51 1813.77   11.91   51.27
   1022.6040  892.48   22.18   55.37   46.98    0.48    6.09    6.64    5.93    6.99    5.72    6.57    5.85    6.54    2.56    2.50    2.41    2.49    8.70    2.55    0.01    35.93 1813.99   11.91   51.27
   1022.7564  892.66   18.86   58.41   53.22    0.55    5.75    6.28    5.75    6.91    5.65    6.49    5.80    6.75    2.49    2.36    2.32    2.39    8.77    2.47    0.02    35.13 1814.31   11.91   51.27
   1022.9088  892.72   13.92   63.45   59.64    0.87    5.81    6.28    5.81    6.98    5.66    6.52    5.81    6.71    2.37    2.35    2.31    2.35    8.83    2.35    0.03    34.40 1814.31   11.91   51.27
   1023.0612  892.87   10.04   60.02   55.07    0.97    5.75    6.84    5.74    6.90    5.62    6.48    5.74    6.47    2.35    2.34    2.27    2.32    8.85    2.32    0.03    33.75 1815.18   11.92   51.27
   1023.2136  893.00   20.89   52.11   56.58    1.07    5.65    7.09    5.64    6.80    5.60    6.44    5.71    6.40    2.30    2.29    2.23    2.26    8.91    2.28    0.03    34.92 1815.14   11.91   51.27
   1023.3660  893.12   26.56   52.96   53.92    1.17    5.45    5.67    5.41    6.49    5.45    6.08    5.56    6.13    2.28    2.28    2.23    2.25    8.91    2.27    0.03    37.45 1815.14   11.91   51.27
   1023.5184  893.26   32.69   54.41   49.22    1.17    5.39    5.67    5.34    6.14    5.36    5.88    5.44    6.03    2.27    2.25    2.22    2.24    8.89    2.25    0.03    36.48 1815.43   11.91   51.27
   1023.6708  893.40   41.16   45.24   46.60    1.18    5.00    5.29    4.95    5.75    4.97    5.42    5.03    5.74    2.23    2.21    2.15    2.22    8.89    2.21    0.03    38.43 1814.97   11.91   51.27
   1023.8232  893.52   36.65   46.50   41.46    1.18    4.82    5.16    4.78    5.53    4.79    5.28    4.86    5.58    2.19    2.16    2.12    2.17    8.89    2.16    0.03    38.95 1814.89   11.91   51.27
   1023.9756  893.63   30.30   34.87   40.77    1.18    4.38    4.72    4.39    5.14    4.40    5.00    4.49    5.32    2.15    2.12    2.10    2.11    8.95    2.12    0.03    37.98 1815.12   11.91   51.27
   1024.1280  893.77   33.73   34.13   38.51    1.18    3.91    4.26    3.98    4.73    4.06    4.74    4.22    5.10    2.09    2.12    2.07    2.10    9.02    2.10    0.03    37.98 1815.24   11.90   51.27
   1024.2804  893.90   38.44   35.94   34.05    1.18    3.69    4.19    3.81    4.53    3.92    4.68    4.13    4.70    2.08    2.07    2.05    2.05    9.02    2.07    0.03    37.10 1815.87   11.91   51.27
   1024.4328  894.03   36.94   31.97   29.26    1.18    3.76    3.98    3.81    4.37    3.96    4.51    4.18    4.88    2.08    2.06    2.07    2.06    9.02    2.07    0.03    36.90 1815.34   11.90   51.27
   1024.5852  894.14   37.31   24.71   28.29    1.19    3.81    3.81    3.79    4.23    3.95    4.30    4.15    4.88    2.09    2.06    2.08    2.08    8.89    2.08    0.02    34.56 1816.21   11.91   51.27
   1024.7376  894.28   41.92   17.94   24.08    1.19    3.83    3.89    3.70    4.08    3.82    4.19    4.05    4.31    2.11    2.07    2.06    2.08    8.77    2.09    0.01    35.99 1816.03   11.90   51.27
   1024.8900  894.41   44.81   20.39   14.95    1.19    3.82    3.88    3.69    4.01    3.76    4.14    3.97    4.28    2.06    2.03    2.01    2.03    8.65    2.03    0.00    38.03 1816.13   11.90   51.27
   1025.0424  894.54   41.28   22.86   17.44    1.19    3.80    3.75    3.74    4.02    3.74    4.08    3.92    4.51    2.04    2.02    1.99    2.01    8.53    2.02   -0.00    36.63 1816.61   11.90   51.27
   1025.1948  894.66   37.04   23.19   20.28    1.19    3.85    3.70    3.79    4.07    3.79    4.04    3.90    4.44    2.05    2.03    2.01    2.04    8.53    2.03   -0.00    37.33 1816.86   11.90   51.27
   1025.3472  894.80   39.54   21.02   25.99    1.19    3.95    3.80    3.84    4.06    3.84    4.02    3.88    4.10    2.09    2.05    2.03    2.08    8.83    2.06    0.01    36.44 1816.81   11.90   51.27
   1025.4996  894.91   42.81   17.31   20.92    1.20    3.97    3.75    3.81    4.06    3.80    3.98    3.80    4.09    2.11    2.05    2.03    2.07    9.12    2.07    0.03    34.73 1817.54   11.90   51.27
   1025.6520  895.05   46.50   18.19   20.04    1.20    4.02    3.90    3.85    4.02    3.79    3.95    3.80    4.36    2.10    2.06    2.05    2.08    9.12    2.08    0.03    33.85 1818.56   11.91   51.27
   1025.8044  895.21   38.66   20.96   20.92    1.20    3.98    3.68    3.84    3.95    3.75    3.93    3.79    4.30    2.09    2.09    2.08    2.09    9.12    2.08    0.03    32.82 1819.20   11.91   51.27
   1025.9568  895.30   24.19   19.92   18.46    1.20    3.96    3.93    3.83    3.97    3.76    4.01    3.80    4.06    2.09    2.09    2.06    2.06    9.02    2.07    0.01    32.23 1819.62   11.91   51.27
   1026.1092  895.42   17.02   18.39   15.08    1.20    4.00    3.67    3.86    3.99    3.81    3.95    3.83    4.12    2.10    2.08    2.08    2.05    8.93    2.07   -0.00    33.62 1820.06   11.91   51.27
   1026.2616  895.57   27.88   18.59   17.04    1.20    3.93    3.68    3.79    4.01    3.75    3.95    3.81    4.08    2.09    2.09    2.08    2.07    8.83    2.09   -0.00    32.58 1819.90   11.91   51.27
   1026.4140  895.68   34.62   15.50   17.69    1.20    3.89    3.73    3.74    4.03    3.71    3.98    3.82    4.19    2.08    2.08    2.08    2.06    8.73    2.08   -0.00    33.08 1820.46   11.91   51.27
   1026.5664  895.82   32.74   20.27   17.69    1.20    3.88    3.67    3.82    3.98    3.79    4.01    3.87    4.15    2.06    2.07    2.07    2.05    8.64    2.06   -0.00    34.43 1820.94   11.91   51.27
   1026.7188  895.93   35.27   18.92   21.10    1.20    3.91    3.82    3.87    3.98    3.82    3.97    3.87    4.02    2.05    2.07    2.08    2.05    8.54    2.06   -0.00    35.52 1820.65   11.91   51.27
   1026.8712  896.08   38.41   24.09   29.32    1.21    3.91    3.85    3.82    3.91    3.79    3.89    3.83    3.80    2.08    2.06    2.08    2.07    8.54    2.06   -0.00    34.78 1821.30   11.91   51.27
