~Version Information
 VERS.                  2.0:   CWLS log ASCII Standard -VERSION 2.0
 WRAP.                   NO:   One line per depth step
~Well Information Block
#MNEM.UNIT     VALUE/NAME     DESCRIPTION
#---------     -----------    ---------------------------
 STRT.M               914.0952: START DEPTH
 STOP.M              1646.9868: STOP DEPTH
 STEP.M                 0.1524: STEP DEPTH
 NULL.                 -999.25: NULL VALUE
 WTYP.                Deviated:  WELL TYPE
 DFWT.                        :  DIST FWL TEXT
 DFST.                        :  DIST FSL TEXT
 DMF .             Drill Floor:  DRILL MEAS FROM
 NREF.                    Grid:  NORTH REFERENCE
 HPTY.       Minimum Curvature:  HOLE POS TYPE
 DMOD.             Drill Model:  DRILL MOD DESC
 SVYD.                  Survey:  SURVEY DESC
 ILTD.               Lithology:  INTERP LTH DESC
 FTOP.          Formation Tops:  FORM TOPS DESC
 SON .        IN-XX-0907787982:  JOB NUMBER
 PDAT.          Mean Sea Level:  PERMANENT DATUM
 UWI .                      NA:  UNIQUE WELL IDENTIFIER
 API .                      NA:  API NUMBER
 MWDS.                  Taloja:  MWD SHOP
 JOBN.        IN-XX-0907787982:  JOB TICKET NUMB
 RIG .                   VG_9:  RIG NAME
 DOE .                      NA:  DOE NUMBER
 CNTY.                       .:  COUNTY NAME
 DCON.         Sperry Drilling:  DIRECTNL CONTR
 UNIT.                11175629:  LOGGING EQUIPMENT ID
 GCDE.     Generic Lat/Long's, Degrees, -180 ==> +180:  GEO COORD DESC
 CCDE.     Indian 1975 (Zone 2A) Thailand CM 74:  CART COORD DESC
 GGSY.                      LL:  GEO GRID SYS
 CGSY.          SS INDIAN-CM74:  CART GRID SYS
 GREF.     Ellipsoid World Geodetic System :  GEO REFERENCE
 MMDL.            bggm2021.dat:  MAGNETIC MODEL
 MMDD.          05 April, 2022:  MAG DATA DATE
 MDS .              Win MagUTM:  MAG DATA SOURCE
 LLGR.      Latitude/Longitude:  LLGROUP
 XYGR.     Asian Coordinate Systems:  XYGROUP
 LOC .                        :  LOCATION
 TVDS.m                  64.55:  TVDSS CORRECTN
 LATI.deg                25.30:  LATITUDE
 LONG.deg                71.77:  LONGITUDE
 WHNS.m                   0.00:  WELL HEAD N/S
 WHEW.m                   0.00:  WELL HEAD E/W
 UTMX.m             2051879.80:  UTM X
 UTMY.m              878801.73:  UTM Y
 DFWL.m                   0.00:  DISTANCE FWL
 DFSL.m                   0.00:  DISTANCE FSL
 SDEP.m                   0.00:  START DEPTH
 TDD .m                   0.00:  TOTAL DEPTH (DRILLER)
 VSDR.deg               350.40:  VERT SEC DIRECT
 GVFD.g                   1.00:  GRAVITY FIELD
 MFLD.nT              45311.10:  MAGNETIC FIELD
 MDIP.deg                40.06:  MAGNETIC DIP
 MDEC.deg                 1.01:  MAGNETIC DECL
 GRDC.deg                -0.98:  GRID CORRECTION
 AZTC.deg                 1.99:  AZM TOTAL CORR
 EPD .m                   0.00:  ELEVATION
 EGL .m                  57.80:  GROUND ELEVATION
 WDMS.m                   0.00:  WD ELEV
 APD .m                  64.55:  DEPTH ABOVE PD
 AGAP.m                   6.75:  AIR GAP
 MMDE.m                   0.00:  MAGUTM CALC DEP
 CMER.deg                74.00:  CENTRL MERIDIAN
 DEP .m                 915.49:  DEPTH
 VSC .                       0:  VS TO CLOSURE
 MAGU.                 1603544:  MAGUTM CHECKSUM
~Curve Information Block
#MNEM.UNIT                 API CODE     Curve Description
#---------               -----------    ---------------------------
 DEPT.M                 00 000 000 000:  Depth
 TVD .m                 00 000 000 000:  True Vertical Depth
 SROP.m/hr              00 000 000 000:  Smoothed Rate of Penetration
 SGRC.api               00 000 000 000:  Smoothed Gamma Ray Combined Borehole Corrected
 ABG .api               00 000 000 000:  Smoothed At Bit Gamma Ray Combined BC
 SFXE.hr                00 000 000 000:  Smoothed Formation Exposure Time
 SEXP.ohmm              00 000 000 000:  Smoothed BC Extra Shallow Phase Resistivity
 SEXA.ohmm              00 000 000 000:  Smoothed BC Extra Shallow Attenuation Resistivity
 SESP.ohmm              00 000 000 000:  Smoothed BC Shallow Phase Resistivity
 SESA.ohmm              00 000 000 000:  Smoothed BC Shallow Attenuation Resistivity
 SEMP.ohmm              00 000 000 000:  Smoothed BC Medium Phase Resistivity
 SEMA.ohmm              00 000 000 000:  Smoothed BC Medium Attenuation Resistivity
 SEDP.ohmm              00 000 000 000:  Smoothed BC Deep Phase Resistivity
 SEDA.ohmm              00 000 000 000:  Smoothed BC Deep Attenuation Resistivity
 ALCDTQ.g/cc            00 000 000 000:  ALD Comp Density T-Quad
 ALCDRQ.g/cc            00 000 000 000:  ALD Comp Density R-Quad
 ALCDBQ.g/cc            00 000 000 000:  ALD Comp Density B-Quad
 ALCDLQ.g/cc            00 000 000 000:  ALD Comp Density L-Quad
 HSI .in                00 000 000 000:  ALD Hole Size Indicator
 SBD2.g/cc              00 000 000 000:  Smoothed Bulk Density
 SCO2.g/cc              00 000 000 000:  Smoothed Standoff Correction
 TNPS.pu                00 000 000 000:  CTN Porosity Sandstone
 PAP .psig              00 000 000 000:  Smoothed PWD Annular Pressure
 ECD .ppg               00 000 000 000:  Smoothed Equivalent Circulating Density
 TEMP.degC              00 000 000 000:  Temperature
#Other Information

#
~A   DEPT      TVD    SROP    SGRC     ABG    SFXE    SEXP    SEXA    SESP    SESA    SEMP    SEMA    SEDP    SEDA   ALCDTQ  ALCDRQ  ALCDBQ  ALCDLQ    HSI    SBD2    SCO2     TNPS     PAP     ECD    TEMP   
# ...
   1579.7784 1373.99   15.11   65.46   59.62    2.41    6.04    7.31    5.93    7.28    5.89    7.19    6.21    8.15    2.25    2.24    2.22    2.25    9.02    2.24    0.02    45.72 2864.70   12.22   64.09
   1579.9308 1374.12   14.92   60.83   58.70    2.41    6.53    7.41    6.30    7.69    6.18    7.22    6.44    8.08    2.25    2.24    2.23    2.23    9.03    2.23    0.02    44.96 2864.50   12.22   64.09
   1580.0832 1374.26   15.13   60.71   60.72    2.42    6.63    7.60    6.39    7.94    6.18    7.37    6.39    8.02    2.23    2.24    2.23    2.24    9.03    2.23    0.02    42.93 2865.05   12.22   64.09
   1580.2356 1374.39   15.01   64.04   58.03    2.42    6.70    8.07    6.53    8.14    6.33    7.55    6.44    8.07    2.26    2.25    2.22    2.25    9.04    2.24    0.02    43.84 2865.00   12.22   64.09
   1580.3880 1374.52   14.47   60.37   60.12    2.42    6.77    8.66    6.69    8.46    6.58    7.76    6.66    7.94    2.25    2.25    2.22    2.25    9.05    2.25    0.02    42.65 2865.04   12.22   64.09
   1580.5404 1374.66   13.97   61.62   59.70    2.42    6.97    8.60    6.88    8.65    6.79    8.07    6.94    8.18    2.25    2.24    2.23    2.24    9.05    2.24    0.02    43.67 2865.43   12.22   64.09
   1580.6928 1374.79   13.29   60.23   56.58    2.42    7.14    8.55    6.97    8.87    6.89    8.33    7.08    8.28    2.25    2.24    2.25    2.24    9.06    2.24    0.02    42.95 2865.77   12.22   64.09
   1580.8452 1374.92   11.81   61.17   59.48    2.42    7.26    8.53    7.12    9.10    6.98    8.42    7.16    8.32    2.25    2.24    2.28    2.27    9.06    2.25    0.02    42.26 2865.62   12.22   64.09
   1580.9976 1375.05   10.91   61.09   57.87    2.41    7.61    8.55    7.35    9.17    7.24    8.56    7.38    8.76    2.25    2.24    2.28    2.32    9.07    2.29    0.02    42.37 2865.43   12.21   64.09
   1581.1500 1375.19   11.54   57.80   58.55    2.41    7.85    8.91    7.47    9.32    7.31    8.80    7.48    9.04    2.28    2.26    2.26    2.40    9.08    2.35    0.02    42.39 2864.02   12.21   64.06
   1581.3024 1375.32   11.89   58.10   62.62    2.40    7.72    9.58    7.40    9.39    7.19    8.71    7.41    8.78    2.24    2.22    2.22    2.33    9.08    2.30    0.02    40.75 2857.31   12.18   63.49
   1581.4548 1375.45   11.82   62.76   60.80    2.40    7.69    9.05    7.49    9.61    7.27    8.94    7.41    9.05    2.24    2.24    2.22    2.25    9.09    2.24    0.02    41.56 2861.07   12.19   63.23
   1581.6072 1375.59   12.56   61.55   59.68    2.40    7.78    8.64    7.57    9.49    7.35    8.97    7.48    9.09    2.23    2.24    2.22    2.22    9.10    2.22    0.02    41.93 2864.59   12.21   63.23
   1581.7596 1375.72   13.17   60.32   55.80    2.40    7.52    8.87    7.34    9.46    7.14    9.04    7.39   10.37    2.22    2.22    2.22    2.22    9.10    2.22    0.02    43.28 2864.59   12.21   63.23
   1581.9120 1375.86   13.29   65.01   60.15    2.40    7.26    8.57    7.07    9.50    6.95    9.16    7.33   10.34    2.22    2.24    2.25    2.23    9.11    2.24    0.02    43.53 2864.68   12.20   63.23
   1582.0644 1375.98   11.94   64.69   59.39    2.39    6.98    8.59    6.92    9.56    6.87    9.54    7.39   10.60    2.24    2.24    2.26    2.25    9.12    2.24    0.02    43.63 2865.46   12.21   63.23
   1582.2168 1376.12   10.86   60.60   58.58    2.39    6.87    9.42    6.86   10.09    6.94    9.77    7.55   10.68    2.25    2.26    2.25    2.25    9.12    2.25    0.02    45.28 2865.61   12.21   63.23
   1582.3692 1376.25   11.69   58.78   58.40    2.40    6.91    9.62    6.93   10.26    7.06    9.94    7.76   10.89    2.26    2.27    2.21    2.22    9.13    2.25    0.02    44.49 2866.29   12.21   63.23
   1582.5216 1376.38   12.99   61.45   58.48    2.40    7.25   10.47    7.26   10.62    7.38   10.48    8.31   11.52    2.25    2.24    2.12    2.18    9.13    2.22    0.02    44.44 2866.58   12.21   63.23
   1582.6740 1376.51   14.58   65.47   56.55    2.40    7.90   10.19    7.87   11.55    8.06   11.10    8.90   12.58    2.19    2.13    1.98    2.04    9.14    2.18    0.05    46.43 2867.00   12.21   63.23
   1582.8264 1376.66   15.97   53.36   49.64    2.41    8.83   12.02    8.66   12.27    8.78   11.52    9.47   12.24    2.04    1.97    1.68    1.79    9.15    2.08    0.05    51.78 2867.24   12.21   63.52
   1582.9788 1376.78   15.58   40.76   35.03    2.41   10.07   13.85    9.87   13.03    9.78   11.78   10.03   11.72    1.76    1.67    1.36    1.44    9.15    1.83    0.05    65.86 2867.64   12.21   63.50
   1583.1312 1376.92   14.56   24.30   23.03    2.40   11.76   14.73   10.92   13.65   10.40   11.88   10.41   13.12    1.49    1.39    1.22    1.24    9.16    1.52    0.05    75.13 2868.11   12.21   64.01
   1583.2836 1377.04   13.09   19.33   18.58    2.40   12.65   14.50   11.27   13.83   10.37   11.88   10.24   12.55    1.26    1.23    1.20    1.20    9.17    1.29   -0.04    81.47 2867.77   12.21   64.09
   1583.4360 1377.18   12.94   24.82   23.98    2.40   11.97   15.09   10.79   14.82    9.74   12.17    9.86   13.65    1.21    1.23    1.43    1.35    9.17    1.43   -0.04    78.63 2867.96   12.21   64.09
   1583.5884 1377.32   14.78   39.14   37.97    2.40   10.03   14.95    9.33   13.97    8.60   12.46    9.06   12.45    1.33    1.40    1.78    1.68    9.18    1.78   -0.04    72.85 2868.08   12.21   64.09
   1583.7408 1377.45   14.90   52.46   54.79    2.39    7.98   12.50    7.81   14.73    7.47   12.28    8.09   11.76    1.63    1.72    2.05    2.02    9.19    2.06   -0.03    66.05 2868.22   12.21   64.09
   1583.8932 1377.58   13.46   62.94   66.33    2.39    7.34   12.40    7.55   13.92    7.70   12.53    8.48   12.96    2.00    2.02    2.06    2.10    9.19    2.09    0.02    56.96 2867.56   12.20   64.09
   1584.0456 1377.71   12.67   66.01   65.80    2.39    7.72   11.89    8.06   13.98    8.44   12.87    9.35   13.52    2.06    2.07    2.07    2.09    9.20    2.07    0.02    48.49 2866.82   12.20   64.09
   1584.1980 1377.84   12.68   66.36   66.35    2.39    8.74   11.83    8.74   12.77    9.42   12.62   10.29   13.24    2.09    2.06    2.10    2.10    9.20    2.08   -0.01    46.61 2866.59   12.19   64.09
   1584.3504 1377.98   13.34   67.70   65.70    2.38    9.59   11.81    9.21   12.02    9.56   12.30   10.43   13.44    2.11    2.12    2.16    2.15    9.21    2.13   -0.01    41.80 2868.28   12.20   64.09
   1584.5028 1378.11   14.11   74.87   75.73    2.38   10.17   10.87    9.69   11.98    9.52   11.94   10.44   13.47    2.14    2.17    2.17    2.18    9.22    2.16    0.02    38.37 2869.46   12.20   64.09
   1584.6552 1378.25   14.12   73.04   70.71    2.38   10.69   10.86   10.13   12.19    9.74   12.09   10.39   12.88    2.18    2.18    2.19    2.18    9.22    2.18    0.02    36.28 2870.03   12.21   64.09
   1584.8076 1378.37   13.63   76.16   71.52    2.37   10.85   11.75   10.37   12.54    9.88   11.61   10.35   13.32    2.20    2.18    2.19    2.21    9.23    2.19    0.02    37.50 2870.91   12.21   64.09
   1584.9600 1378.51   13.28   73.38   69.13    2.37   10.89   11.69   10.51   12.53   10.09   11.38   10.20   12.79    2.20    2.19    2.21    2.19    9.24    2.20    0.02    37.60 2872.14   12.21   64.09
   1585.1124 1378.64   13.21   70.74   63.43    2.37   10.97   11.88   10.71   12.46   10.31   11.58   10.13   12.95    2.22    2.24    2.30    2.26    9.24    2.26   -0.01    38.27 2872.57   12.21   64.09
   1585.2648 1378.78   14.03   62.80   58.33    2.37   11.19   10.79   10.74   12.36   10.27   11.29   10.03   13.14    2.27    2.32    2.42    2.37    9.25    2.38    0.00    39.90 2872.90   12.21   64.09
   1585.4172 1378.91   14.56   64.34   59.30    2.37   10.81   11.01   10.22   11.89    9.77   10.98    9.56   12.32    2.39    2.41    2.38    2.39    9.26    2.42    0.02    40.59 2873.19   12.21   64.09
   1585.5696 1379.04   13.65   65.83   64.69    2.37    9.29   11.18    8.90   11.49    8.52   10.50    8.57   11.93    2.45    2.41    2.28    2.33    9.26    2.43    0.07    38.42 2874.26   12.22   64.09
