~Version Information
 VERS.                  2.0:   CWLS log ASCII Standard -VERSION 2.0
 WRAP.                   NO:   One line per depth step
~Well Information Block
#MNEM.UNIT     VALUE/NAME     DESCRIPTION
#---------     -----------    ---------------------------
 STRT.M               914.0952: START DEPTH
 STOP.M              1646.9868: STOP DEPTH
 STEP.M                 0.1524: STEP DEPTH
 NULL.                 -999.25: NULL VALUE
 WTYP.                Deviated:  WELL TYPE
 DFWT.                        :  DIST FWL TEXT
 DFST.                        :  DIST FSL TEXT
 DMF .             Drill Floor:  DRILL MEAS FROM
 NREF.                    Grid:  NORTH REFERENCE
 HPTY.       Minimum Curvature:  HOLE POS TYPE
 DMOD.             Drill Model:  DRILL MOD DESC
 SVYD.                  Survey:  SURVEY DESC
 ILTD.               Lithology:  INTERP LTH DESC
 FTOP.          Formation Tops:  FORM TOPS DESC
 SON .        IN-XX-0907787982:  JOB NUMBER
 PDAT.          Mean Sea Level:  PERMANENT DATUM
 UWI .                      NA:  UNIQUE WELL IDENTIFIER
 API .                      NA:  API NUMBER
 MWDS.                  Taloja:  MWD SHOP
 JOBN.        IN-XX-0907787982:  JOB TICKET NUMB
 RIG .                   VG_9:  RIG NAME
 DOE .                      NA:  DOE NUMBER
 CNTY.                       .:  COUNTY NAME
 DCON.         Sperry Drilling:  DIRECTNL CONTR
 UNIT.                11175629:  LOGGING EQUIPMENT ID
 GCDE.     Generic Lat/Long's, Degrees, -180 ==> +180:  GEO COORD DESC
 CCDE.     Indian 1975 (Zone 2A) Thailand CM 74:  CART COORD DESC
 GGSY.                      LL:  GEO GRID SYS
 CGSY.          SS INDIAN-CM74:  CART GRID SYS
 GREF.     Ellipsoid World Geodetic System :  GEO REFERENCE
 MMDL.            bggm2021.dat:  MAGNETIC MODEL
 MMDD.          05 April, 2022:  MAG DATA DATE
 MDS .              Win MagUTM:  MAG DATA SOURCE
 LLGR.      Latitude/Longitude:  LLGROUP
 XYGR.     Asian Coordinate Systems:  XYGROUP
 LOC .                        :  LOCATION
 TVDS.m                  64.55:  TVDSS CORRECTN
 LATI.deg                25.30:  LATITUDE
 LONG.deg                71.77:  LONGITUDE
 WHNS.m                   0.00:  WELL HEAD N/S
 WHEW.m                   0.00:  WELL HEAD E/W
 UTMX.m             2051879.80:  UTM X
 UTMY.m              878801.73:  UTM Y
 DFWL.m                   0.00:  DISTANCE FWL
 DFSL.m                   0.00:  DISTANCE FSL
 SDEP.m                   0.00:  START DEPTH
 TDD .m                   0.00:  TOTAL DEPTH (DRILLER)
 VSDR.deg               350.40:  VERT SEC DIRECT
 GVFD.g                   1.00:  GRAVITY FIELD
 MFLD.nT              45311.10:  MAGNETIC FIELD
 MDIP.deg                40.06:  MAGNETIC DIP
 MDEC.deg                 1.01:  MAGNETIC DECL
 GRDC.deg                -0.98:  GRID CORRECTION
 AZTC.deg                 1.99:  AZM TOTAL CORR
 EPD .m                   0.00:  ELEVATION
 EGL .m                  57.80:  GROUND ELEVATION
 WDMS.m                   0.00:  WD ELEV
 APD .m                  64.55:  DEPTH ABOVE PD
 AGAP.m                   6.75:  AIR GAP
 MMDE.m                   0.00:  MAGUTM CALC DEP
 CMER.deg                74.00:  CENTRL MERIDIAN
 DEP .m                 915.49:  DEPTH
 VSC .                       0:  VS TO CLOSURE
 MAGU.                 1603544:  MAGUTM CHECKSUM
~Curve Information Block
#MNEM.UNIT                 API CODE     Curve Description
#---------               -----------    ---------------------------
 DEPT.M                 00 000 000 000:  Depth
 TVD .m                 00 000 000 000:  True Vertical Depth
 SROP.m/hr              00 000 000 000:  Smoothed Rate of Penetration
 SGRC.api               00 000 000 000:  Smoothed Gamma Ray Combined Borehole Corrected
 ABG .api               00 000 000 000:  Smoothed At Bit Gamma Ray Combined BC
 SFXE.hr                00 000 000 000:  Smoothed Formation Exposure Time
 SEXP.ohmm              00 000 000 000:  Smoothed BC Extra Shallow Phase Resistivity
 SEXA.ohmm              00 000 000 000:  Smoothed BC Extra Shallow Attenuation Resistivity
 SESP.ohmm              00 000 000 000:  Smoothed BC Shallow Phase Resistivity
 SESA.ohmm              00 000 000 000:  Smoothed BC Shallow Attenuation Resistivity
 SEMP.ohmm              00 000 000 000:  Smoothed BC Medium Phase Resistivity
 SEMA.ohmm              00 000 000 000:  Smoothed BC Medium Attenuation Resistivity
 SEDP.ohmm              00 000 000 000:  Smoothed BC Deep Phase Resistivity
 SEDA.ohmm              00 000 000 000:  Smoothed BC Deep Attenuation Resistivity
 ALCDTQ.g/cc            00 000 000 000:  ALD Comp Density T-Quad
 ALCDRQ.g/cc            00 000 000 000:  ALD Comp Density R-Quad
 ALCDBQ.g/cc            00 000 000 000:  ALD Comp Density B-Quad
 ALCDLQ.g/cc            00 000 000 000:  ALD Comp Density L-Quad
 HSI .in                00 000 000 000:  ALD Hole Size Indicator
 SBD2.g/cc              00 000 000 000:  Smoothed Bulk Density
 SCO2.g/cc              00 000 000 000:  Smoothed Standoff Correction
 TNPS.pu                00 000 000 000:  CTN Porosity Sandstone
 PAP .psig              00 000 000 000:  Smoothed PWD Annular Pressure
 ECD .ppg               00 000 000 000:  Smoothed Equivalent Circulating Density
 TEMP.degC              00 000 000 000:  Temperature
#Other Information

#
~A   DEPT      TVD    SROP    SGRC     ABG    SFXE    SEXP    SEXA    SESP    SESA    SEMP    SEMA    SEDP    SEDA   ALCDTQ  ALCDRQ  ALCDBQ  ALCDLQ    HSI    SBD2    SCO2     TNPS     PAP     ECD    TEMP   
# ...
   1205.3316 1048.60   19.76   22.78   21.93    1.56    5.15    5.30    5.02    5.45    4.96    5.45    5.09    5.74    2.19    2.21    2.18    2.17    8.89    2.18    0.02    28.52 2160.62   12.08   58.11
   1205.4840 1048.74   19.51   30.80   23.93    1.55    5.17    5.34    5.02    5.62    4.96    5.51    5.09    5.68    2.18    2.21    2.18    2.18    8.89    2.18    0.02    27.97 2161.41   12.08   58.11
   1205.6364 1048.86   18.94   29.18   24.82    1.55    5.15    5.34    5.00    5.63    4.93    5.46    5.03    5.97    2.19    2.21    2.18    2.18    8.89    2.20    0.02    28.54 2161.81   12.08   58.11
   1205.7888 1049.00   18.75   29.19   23.02    1.55    5.08    5.29    4.99    5.63    4.89    5.44    4.99    5.86    2.19    2.22    2.19    2.18    8.89    2.19    0.02    28.49 2161.82   12.08   58.11
   1205.9412 1049.12   18.46   25.66   23.18    1.55    4.98    5.33    4.92    5.58    4.86    5.55    4.96    5.78    2.17    2.20    2.17    2.18    8.89    2.18    0.02    28.26 2161.30   12.08   58.11
   1206.0936 1049.26   17.89   22.76   22.88    1.55    4.94    5.29    4.91    5.56    4.87    5.53    5.04    5.93    2.18    2.19    2.16    2.17    8.89    2.17    0.02    29.72 2161.06   12.07   58.11
   1206.2460 1049.39   17.29   21.86   25.63    1.54    4.96    5.28    4.92    5.49    4.93    5.57    5.09    5.88    2.19    2.17    2.15    2.16    8.89    2.17    0.02    30.17 2162.55   12.08   58.11
   1206.3984 1049.52   17.91   20.52   23.82    1.54    5.03    5.28    4.94    5.60    4.96    5.65    5.21    5.99    2.18    2.16    2.16    2.17    8.89    2.17    0.02    30.27 2162.65   12.08   58.11
   1206.5508 1049.65   18.97   20.52   25.72    1.54    5.10    5.30    4.99    5.52    5.01    5.73    5.29    5.80    2.18    2.19    2.19    2.17    8.88    2.18    0.02    29.50 2163.22   12.08   58.11
   1206.7032 1049.79   19.27   22.79   26.45    1.53    5.13    5.42    5.05    5.76    5.08    5.74    5.32    6.11    2.20    2.20    2.20    2.20    8.88    2.19    0.02    29.28 2162.82   12.08   58.11
   1206.8556 1049.91   19.11   29.59   30.35    1.53    5.21    5.75    5.12    5.99    5.14    5.80    5.40    6.78    2.22    2.18    2.19    2.21    8.88    2.20    0.02    28.79 2162.58   12.07   58.11
   1207.0080 1050.05   19.12   27.87   31.19    1.53    5.26    6.04    5.18    6.03    5.17    5.91    5.45    7.06    2.22    2.20    2.18    2.21    8.88    2.21    0.02    28.14 2164.31   12.08   58.11
   1207.1604 1050.17   18.84   25.42   26.63    1.53    5.32    5.96    5.25    6.05    5.23    6.01    5.50    6.96    2.22    2.20    2.18    2.20    9.25    2.20    0.06    27.31 2165.21   12.09   58.11
   1207.3128 1050.31   18.69   26.91   27.59    1.53    5.37    5.88    5.31    5.93    5.29    6.10    5.56    6.66    2.22    2.22    2.15    2.18    9.25    2.19    0.06    27.57 2165.04   12.08   58.11
   1207.4652 1050.44   18.92   26.49   28.64    1.52    5.42    6.07    5.39    6.26    5.38    6.23    5.64    6.43    2.21    2.19    2.10    2.16    9.09    2.17    0.04    30.89 2166.19   12.09   58.11
   1207.6176 1050.57   18.94   26.51   30.55    1.52    5.53    6.25    5.50    6.35    5.50    6.23    5.77    6.37    2.20    2.18    2.11    2.15    8.92    2.15    0.02    32.55 2167.21   12.09   58.11
   1207.7700 1050.70   19.42   27.66   29.90    1.52    5.59    6.21    5.53    6.15    5.53    6.21    5.78    6.61    2.19    2.20    2.16    2.17    8.92    2.18    0.02    33.94 2167.37   12.09   58.11
   1207.9224 1050.83   20.08   28.52   27.23    1.52    5.60    6.21    5.56    6.20    5.52    6.17    5.81    6.58    2.22    2.24    2.23    2.23    8.86    2.23    0.02    33.68 2168.30   12.09   58.11
   1208.0748 1050.97   20.06   31.89   24.41    1.51    5.59    6.27    5.56    6.47    5.52    6.23    5.77    6.57    2.21    2.22    2.22    2.22    8.86    2.22    0.02    31.54 2168.47   12.09   58.11
   1208.2272 1051.10   19.95   29.64   25.54    1.51    5.55    5.99    5.49    6.29    5.52    6.27    5.75    6.82    2.25    2.20    2.22    2.24    8.86    2.22    0.02    28.79 2168.37   12.09   58.11
   1208.3796 1051.24   17.22   27.21   25.27    1.39    5.51    5.85    5.48    6.21    5.49    6.27    5.74    6.58    2.24    2.20    2.20    2.21    8.86    2.21    0.02    26.83 2169.66   12.10   58.11
   1208.5320 1051.34    7.17   23.72   25.39    1.39    5.50    5.92    5.47    6.28    5.47    6.21    5.75    6.60    2.23    2.22    2.20    2.21    8.86    2.22    0.02    27.17 2170.88   12.10   58.11
   1208.6844 1051.49    1.72   27.62   25.67    1.37    5.48    5.54    5.42    6.28    5.45    6.14    5.73    6.63    2.22    2.22    2.22    2.22    8.86    2.22    0.02    27.07 2171.00   12.10   58.16
   1208.8368 1051.62   16.57   26.88   27.39    1.34    5.43    5.61    5.41    6.10    5.41    6.04    5.67    6.15    2.23    2.24    2.25    2.23    8.85    2.23    0.02    27.44 2171.32   12.10   58.80
   1208.9892 1051.75   20.21   31.88   31.17    1.34    5.36    5.57    5.31    5.99    5.39    6.04    5.61    5.73    2.26    2.25    2.26    2.22    8.85    2.25    0.02    28.21 2172.30   12.11   58.96
   1209.1416 1051.89   20.82   35.98   32.36    1.34    5.33    5.84    5.30    6.01    5.40    5.84    5.57    6.00    2.21    2.22    2.22    2.23    8.86    2.22    0.02    28.28 2172.53   12.11   58.96
   1209.2940 1052.02   20.99   34.91   35.61    1.34    5.32    5.65    5.33    5.90    5.42    5.71    5.54    5.58    2.20    2.22    2.21    2.24    8.87    2.22    0.02    29.07 2173.59   12.11   58.96
   1209.4464 1052.15   20.40   41.70   39.52    1.34    5.38    5.48    5.37    5.72    5.43    5.55    5.40    5.76    2.21    2.21    2.21    2.23    8.87    2.22    0.02    28.97 2174.09   12.11   58.96
   1209.5988 1052.28   19.50   39.89   37.70    1.33    5.43    5.25    5.35    5.50    5.38    5.39    5.31    5.18    2.23    2.22    2.24    2.21    8.87    2.22    0.02    29.47 2174.31   12.11   58.96
   1209.7512 1052.41   18.91   35.48   37.10    1.33    5.34    5.26    5.23    5.48    5.20    5.09    5.15    5.14    2.25    2.24    2.25    2.21    8.87    2.23    0.02    29.88 2174.57   12.11   58.96
   1209.9036 1052.54   19.21   32.59   33.19    1.33    5.20    4.99    5.05    5.22    4.98    4.87    4.87    4.90    2.25    2.23    2.25    2.24    8.89    2.25    0.02    29.78 2176.50   12.12   58.96
   1210.0560 1052.68   19.31   38.72   32.64    1.17    4.97    4.93    4.83    4.91    4.76    4.61    4.65    4.46    2.24    2.20    2.22    2.24    8.89    2.23    0.02    29.40 2175.63   12.11   58.96
   1210.2084 1052.84   15.03   37.98   35.22    1.01    4.73    4.47    4.62    4.65    4.53    4.37    4.38    4.29    2.20    2.20    2.20    2.20    8.88    2.20    0.02    29.87 2176.00   12.12   58.96
   1210.3608 1052.90    9.48   40.96   40.98    0.85    4.50    4.04    4.34    4.25    4.27    4.13    4.19    4.22    2.19    2.22    2.22    2.16    8.86    2.20    0.02    30.71 2176.88   12.12   58.96
   1210.5132 1053.06    2.14   50.33   44.18    0.69    4.11    3.76    4.03    3.97    4.20    3.92    4.21    4.01    2.22    2.28    2.26    2.16    8.85    2.25    0.02    30.09 2177.00   12.12   58.96
   1210.6656 1053.20   22.49   57.04   48.04    0.52    3.73    3.44    3.68    3.59    3.95    3.64    4.01    3.84    2.26    2.31    2.29    2.21    8.83    2.29    0.02    30.55 2176.67   12.11   58.96
   1210.8180 1053.33   27.55   61.32   58.39    0.52    3.18    3.09    3.09    3.29    3.10    3.43    3.24    3.69    2.29    2.31    2.31    2.27    8.82    2.30    0.02    31.78 2177.60   12.12   58.96
   1210.9704 1053.46   27.43   73.80   67.82    0.53    2.59    2.97    2.59    3.14    2.57    3.35    2.78    3.59    2.31    2.28    2.31    2.30    8.82    2.30    0.02    34.69 2176.89   12.11   58.96
   1211.1228 1053.59   27.41   86.14   76.81    0.53    2.27    2.90    2.41    3.09    2.53    3.25    2.75    3.57    2.31    2.25    2.26    2.30    8.83    2.28    0.02    37.37 2178.12   12.12   58.96
