~Version Information
 VERS.                  2.0:   CWLS log ASCII Standard -VERSION 2.0
 WRAP.                   NO:   One line per depth step
~Well Information Block
#MNEM.UNIT     VALUE/NAME     DESCRIPTION
#---------     -----------    ---------------------------
 STRT.M               914.0952: START DEPTH
 STOP.M              1646.9868: STOP DEPTH
 STEP.M                 0.1524: STEP DEPTH
 NULL.                 -999.25: NULL VALUE
 WTYP.                Deviated:  WELL TYPE
 DFWT.                        :  DIST FWL TEXT
 DFST.                        :  DIST FSL TEXT
 DMF .             Drill Floor:  DRILL MEAS FROM
 NREF.                    Grid:  NORTH REFERENCE
 HPTY.       Minimum Curvature:  HOLE POS TYPE
 DMOD.             Drill Model:  DRILL MOD DESC
 SVYD.                  Survey:  SURVEY DESC
 ILTD.               Lithology:  INTERP LTH DESC
 FTOP.          Formation Tops:  FORM TOPS DESC
 SON .        IN-XX-0907787982:  JOB NUMBER
 PDAT.          Mean Sea Level:  PERMANENT DATUM
 UWI .                      NA:  UNIQUE WELL IDENTIFIER
 API .                      NA:  API NUMBER
 MWDS.                  Taloja:  MWD SHOP
 JOBN.        IN-XX-0907787982:  JOB TICKET NUMB
 RIG .                   VG_9:  RIG NAME
 DOE .                      NA:  DOE NUMBER
 CNTY.                       .:  COUNTY NAME
 DCON.         Sperry Drilling:  DIRECTNL CONTR
 UNIT.                11175629:  LOGGING EQUIPMENT ID
 GCDE.     Generic Lat/Long's, Degrees, -180 ==> +180:  GEO COORD DESC
 CCDE.     Indian 1975 (Zone 2A) Thailand CM 74:  CART COORD DESC
 GGSY.                      LL:  GEO GRID SYS
 CGSY.          SS INDIAN-CM74:  CART GRID SYS
 GREF.     Ellipsoid World Geodetic System :  GEO REFERENCE
 MMDL.            bggm2021.dat:  MAGNETIC MODEL
 MMDD.          05 April, 2022:  MAG DATA DATE
 MDS .              Win MagUTM:  MAG DATA SOURCE
 LLGR.      Latitude/Longitude:  LLGROUP
 XYGR.     Asian Coordinate Systems:  XYGROUP
 LOC .                        :  LOCATION
 TVDS.m                  64.55:  TVDSS CORRECTN
 LATI.deg                25.30:  LATITUDE
 LONG.deg                71.77:  LONGITUDE
 WHNS.m                   0.00:  WELL HEAD N/S
 WHEW.m                   0.00:  WELL HEAD E/W
 UTMX.m             2051879.80:  UTM X
 UTMY.m              878801.73:  UTM Y
 DFWL.m                   0.00:  DISTANCE FWL
 DFSL.m                   0.00:  DISTANCE FSL
 SDEP.m                   0.00:  START DEPTH
 TDD .m                   0.00:  TOTAL DEPTH (DRILLER)
 VSDR.deg               350.40:  VERT SEC DIRECT
 GVFD.g                   1.00:  GRAVITY FIELD
 MFLD.nT              45311.10:  MAGNETIC FIELD
 MDIP.deg                40.06:  MAGNETIC DIP
 MDEC.deg                 1.01:  MAGNETIC DECL
 GRDC.deg                -0.98:  GRID CORRECTION
 AZTC.deg                 1.99:  AZM TOTAL CORR
 EPD .m                   0.00:  ELEVATION
 EGL .m                  57.80:  GROUND ELEVATION
 WDMS.m                   0.00:  WD ELEV
 APD .m                  64.55:  DEPTH ABOVE PD
 AGAP.m                   6.75:  AIR GAP
 MMDE.m                   0.00:  MAGUTM CALC DEP
 CMER.deg                74.00:  CENTRL MERIDIAN
 DEP .m                 915.49:  DEPTH
 VSC .                       0:  VS TO CLOSURE
 MAGU.                 1603544:  MAGUTM CHECKSUM
~Curve Information Block
#MNEM.UNIT                 API CODE     Curve Description
#---------               -----------    ---------------------------
 DEPT.M                 00 000 000 000:  Depth
 TVD .m                 00 000 000 000:  True Vertical Depth
 SROP.m/hr              00 000 000 000:  Smoothed Rate of Penetration
 SGRC.api               00 000 000 000:  Smoothed Gamma Ray Combined Borehole Corrected
 ABG .api               00 000 000 000:  Smoothed At Bit Gamma Ray Combined BC
 SFXE.hr                00 000 000 000:  Smoothed Formation Exposure Time
 SEXP.ohmm              00 000 000 000:  Smoothed BC Extra Shallow Phase Resistivity
 SEXA.ohmm              00 000 000 000:  Smoothed BC Extra Shallow Attenuation Resistivity
 SESP.ohmm              00 000 000 000:  Smoothed BC Shallow Phase Resistivity
 SESA.ohmm              00 000 000 000:  Smoothed BC Shallow Attenuation Resistivity
 SEMP.ohmm              00 000 000 000:  Smoothed BC Medium Phase Resistivity
 SEMA.ohmm              00 000 000 000:  Smoothed BC Medium Attenuation Resistivity
 SEDP.ohmm              00 000 000 000:  Smoothed BC Deep Phase Resistivity
 SEDA.ohmm              00 000 000 000:  Smoothed BC Deep Attenuation Resistivity
 ALCDTQ.g/cc            00 000 000 000:  ALD Comp Density T-Quad
 ALCDRQ.g/cc            00 000 000 000:  ALD Comp Density R-Quad
 ALCDBQ.g/cc            00 000 000 000:  ALD Comp Density B-Quad
 ALCDLQ.g/cc            00 000 000 000:  ALD Comp Density L-Quad
 HSI .in                00 000 000 000:  ALD Hole Size Indicator
 SBD2.g/cc              00 000 000 000:  Smoothed Bulk Density
 SCO2.g/cc              00 000 000 000:  Smoothed Standoff Correction
 TNPS.pu                00 000 000 000:  CTN Porosity Sandstone
 PAP .psig              00 000 000 000:  Smoothed PWD Annular Pressure
 ECD .ppg               00 000 000 000:  Smoothed Equivalent Circulating Density
 TEMP.degC              00 000 000 000:  Temperature
#Other Information

#
~A   DEPT      TVD    SROP    SGRC     ABG    SFXE    SEXP    SEXA    SESP    SESA    SEMP    SEMA    SEDP    SEDA   ALCDTQ  ALCDRQ  ALCDBQ  ALCDLQ    HSI    SBD2    SCO2     TNPS     PAP     ECD    TEMP   
# ...
   1068.6288  931.14   37.11   45.51   45.45    1.18    5.50    5.66    5.53    6.75    5.77    6.58    5.88    6.71    2.17    2.18    2.18    2.17    8.94    2.17    0.03    33.83 1897.22   11.94   52.12
   1068.7812  931.26   37.23   40.13   41.74    1.18    5.44    5.50    5.42    6.31    5.58    6.46    5.83    6.25    2.18    2.18    2.17    2.17    8.94    2.17    0.03    33.23 1897.64   11.94   52.12
   1068.9336  931.39   34.84   36.95   38.65    1.18    5.41    5.62    5.37    6.10    5.47    6.35    5.74    6.09    2.18    2.18    2.17    2.16    8.94    2.17    0.03    32.25 1898.48   11.95   52.12
   1069.0860  931.51   34.44   36.96   38.79    1.18    5.37    5.87    5.30    5.83    5.31    6.19    5.60    5.91    2.19    2.18    2.16    2.16    8.94    2.17    0.03    31.96 1899.83   11.95   52.12
   1069.2384  931.65   36.40   37.80   38.29    1.18    5.33    5.59    5.22    5.69    5.17    5.88    5.46    6.15    2.20    2.19    2.18    2.19    8.93    2.19    0.03    31.05 1901.05   11.96   52.12
   1069.3908  931.78   39.14   41.67   39.71    1.18    5.25    5.45    5.15    5.58    5.09    5.73    5.36    6.17    2.20    2.19    2.19    2.20    8.93    2.19    0.03    30.96 1900.26   11.95   52.12
   1069.5432  931.91   39.35   50.87   34.20    1.18    5.08    5.25    5.01    5.41    4.98    5.51    5.17    6.10    2.19    2.17    2.18    2.19    8.93    2.18    0.03    32.19 1899.68   11.95   52.12
   1069.6956  932.03   38.85   48.70   43.19    1.18    5.01    5.03    4.98    5.49    4.96    5.38    5.07    5.27    2.18    2.15    2.13    2.14    8.93    2.16    0.03    33.39 1901.23   11.96   52.12
   1069.8480  932.17   40.11   38.65   42.91    1.18    4.96    4.92    4.88    5.35    4.85    5.28    4.96    5.15    2.16    2.14    2.11    2.12    8.87    2.14    0.02    30.93 1901.53   11.96   52.12
   1070.0004  932.29   40.50   29.74   35.78    1.18    4.91    4.85    4.77    5.18    4.73    5.21    4.85    5.17    2.15    2.13    2.08    2.11    8.80    2.12    0.02    32.14 1902.20   11.96   52.12
   1070.1528  932.42   38.98   27.11   27.01    1.18    4.78    4.85    4.60    4.97    4.58    5.16    4.70    5.26    2.11    2.09    2.06    2.07    8.74    2.08    0.01    33.07 1903.26   11.96   52.12
   1070.3052  932.55   39.12   26.37   22.55    1.18    4.60    4.68    4.52    4.93    4.52    5.03    4.65    5.13    2.09    2.06    2.06    2.08    8.67    2.07    0.01    33.48 1903.58   11.97   52.12
   1070.4576  932.68   40.00   28.85   22.44    1.18    4.52    4.49    4.47    4.88    4.49    4.97    4.62    5.00    2.08    2.06    2.06    2.09    8.61    2.07    0.00    33.81 1903.61   11.96   52.12
   1070.6100  932.81   39.85   27.28   22.74    1.18    4.44    4.19    4.43    4.80    4.46    4.93    4.57    4.81    2.08    2.06    2.07    2.10    8.54    2.07   -0.00    35.13 1903.89   11.96   52.12
   1070.7624  932.94   39.03   26.31   22.79    1.18    4.63    4.39    4.50    4.72    4.48    4.78    4.56    5.39    2.12    2.12    2.08    2.12    8.54    2.12   -0.00    34.58 1905.10   11.97   52.12
   1070.9148  933.06   38.52   26.52   21.01    1.18    4.56    4.41    4.42    4.67    4.40    4.67    4.47    5.13    2.10    2.09    2.07    2.11    8.80    2.09    0.01    32.78 1905.36   11.97   52.12
   1071.0672  933.20   40.26   24.30   24.39    1.18    4.48    4.36    4.35    4.60    4.32    4.58    4.38    4.87    2.09    2.08    2.07    2.09    9.06    2.08    0.03    33.03 1906.83   11.98   52.12
   1071.2196  933.32   41.37   28.24   29.56    1.18    4.41    4.22    4.30    4.47    4.29    4.51    4.32    4.80    2.09    2.07    2.06    2.07    9.06    2.07    0.03    31.43 1906.29   11.97   52.12
   1071.3720  933.46   41.36   28.28   26.72    1.19    4.34    4.48    4.26    4.52    4.21    4.48    4.28    4.49    2.08    2.05    2.04    2.04    9.06    2.05    0.03    31.63 1906.41   11.97   52.12
   1071.5244  933.57   41.35   29.74   27.75    1.19    4.23    4.31    4.17    4.42    4.12    4.48    4.20    4.44    2.08    2.04    2.03    2.04    8.89    2.05    0.02    34.71 1906.94   11.97   52.12
   1071.6768  933.72   41.72   24.41   28.06    1.19    4.18    4.27    4.13    4.41    4.10    4.47    4.19    4.44    2.07    2.03    2.03    2.04    8.72    2.05    0.01    36.66 1907.19   11.97   52.12
   1071.8292  933.84   39.88   27.05   25.64    1.19    4.14    4.27    4.09    4.45    4.10    4.47    4.21    4.46    2.04    2.06    2.04    2.07    8.54    2.05   -0.00    34.72 1907.78   11.97   52.12
   1071.9816  933.97   38.64   27.34   25.31    1.19    4.18    4.11    4.13    4.36    4.12    4.47    4.20    4.41    2.04    2.04    2.04    2.04    8.54    2.04   -0.00    35.99 1908.26   11.98   52.12
   1072.1340  934.09   38.72   25.78   23.24    1.19    4.20    4.25    4.15    4.43    4.13    4.55    4.24    4.34    2.04    2.04    2.04    2.04    8.65    2.04    0.00    35.90 1909.20   11.98   52.12
   1072.2864  934.23   39.84   24.34   23.37    1.19    4.24    4.18    4.15    4.48    4.15    4.61    4.27    4.39    2.05    2.05    2.05    2.05    8.75    2.05    0.01    35.95 1909.43   11.98   52.12
   1072.4388  934.35   40.25   26.88   23.38    1.19    4.28    4.02    4.16    4.52    4.17    4.65    4.31    4.49    2.07    2.06    2.07    2.08    8.85    2.08    0.02    35.30 1910.45   11.98   52.12
   1072.5912  934.49   39.76   21.41   26.04    1.19    4.32    4.23    4.26    4.43    4.27    4.58    4.40    4.55    2.07    2.06    2.08    2.08    8.96    2.07    0.02    34.27 1910.67   11.98   52.12
   1072.7436  934.61   39.03   21.38   25.06    1.19    4.38    4.35    4.36    4.52    4.33    4.56    4.42    4.53    2.07    2.06    2.09    2.09    9.06    2.07    0.03    33.03 1911.45   11.99   52.12
   1072.8960  934.75   39.04   23.72   23.91    1.19    4.45    4.47    4.43    4.60    4.38    4.58    4.44    4.57    2.07    2.08    2.10    2.09    9.06    2.08    0.03    33.98 1911.94   11.99   52.12
   1073.0484  934.87   38.58   28.02   25.79    1.19    4.58    4.67    4.52    4.75    4.45    4.71    4.48    4.74    2.10    2.09    2.10    2.12    8.93    2.10    0.02    35.33 1912.99   11.99   52.12
   1073.2008  935.01   38.16   25.81   27.67    1.19    4.56    4.42    4.45    4.76    4.39    4.68    4.44    4.66    2.10    2.09    2.08    2.10    8.80    2.09    0.01    34.77 1913.74   12.00   52.12
   1073.3532  935.13   39.58   26.87   27.54    1.19    4.52    4.37    4.43    4.69    4.38    4.73    4.47    4.56    2.10    2.08    2.05    2.07    8.67    2.08    0.00    35.07 1913.46   11.99   52.12
   1073.5056  935.26   39.58   23.52   27.77    1.19    4.48    4.40    4.43    4.64    4.40    4.80    4.52    4.49    2.06    2.07    2.05    2.07    8.54    2.06   -0.00    35.96 1914.77   12.00   52.12
   1073.6580  935.38   38.28   23.23   24.06    1.19    4.49    4.62    4.48    4.92    4.49    4.80    4.55    4.74    2.08    2.08    2.08    2.09    8.54    2.08   -0.00    35.88 1915.56   12.00   52.12
   1073.8104  935.53   40.49   28.81   23.76    1.19    4.58    4.62    4.53    4.86    4.54    4.84    4.59    4.65    2.09    2.10    2.10    2.10    8.54    2.10   -0.00    36.91 1915.87   12.00   52.12
   1073.9628  935.65   43.35   26.06   25.49    1.19    4.66    4.60    4.57    4.92    4.55    4.86    4.58    4.64    2.12    2.13    2.12    2.11    8.77    2.12    0.01    34.80 1915.91   12.00   52.12
   1074.1152  935.78   40.98   45.67   30.06    1.19    4.70    4.62    4.59    5.02    4.50    4.89    4.53    4.72    2.13    2.13    2.14    2.14    8.99    2.13    0.03    33.83 1916.72   12.01   52.12
   1074.2676  935.90   38.80   55.47   43.34    1.19    4.58    4.85    4.47    4.84    4.33    4.89    4.43    5.01    2.13    2.13    2.12    2.14    8.99    2.12    0.03    32.24 1917.32   12.01   52.12
   1074.4200  936.04   38.14   75.72   59.51    1.19    4.40    4.85    4.38    4.87    4.32    4.92    4.46    5.04    2.15    2.14    2.11    2.15    8.98    2.13    0.03    33.58 1918.76   12.02   52.12
