~Version Information
 VERS.                  2.0:   CWLS log ASCII Standard -VERSION 2.0
 WRAP.                   NO:   One line per depth step
~Well Information Block
#MNEM.UNIT     VALUE/NAME     DESCRIPTION
#---------     -----------    ---------------------------
 STRT.M               914.0952: START DEPTH
 STOP.M              1646.9868: STOP DEPTH
 STEP.M                 0.1524: STEP DEPTH
 NULL.                 -999.25: NULL VALUE
 WTYP.                Deviated:  WELL TYPE
 DFWT.                        :  DIST FWL TEXT
 DFST.                        :  DIST FSL TEXT
 DMF .             Drill Floor:  DRILL MEAS FROM
 NREF.                    Grid:  NORTH REFERENCE
 HPTY.       Minimum Curvature:  HOLE POS TYPE
 DMOD.             Drill Model:  DRILL MOD DESC
 SVYD.                  Survey:  SURVEY DESC
 ILTD.               Lithology:  INTERP LTH DESC
 FTOP.          Formation Tops:  FORM TOPS DESC
 SON .        IN-XX-0907787982:  JOB NUMBER
 PDAT.          Mean Sea Level:  PERMANENT DATUM
 UWI .                      NA:  UNIQUE WELL IDENTIFIER
 API .                      NA:  API NUMBER
 MWDS.                  Taloja:  MWD SHOP
 JOBN.        IN-XX-0907787982:  JOB TICKET NUMB
 RIG .                   VG_9:  RIG NAME
 DOE .                      NA:  DOE NUMBER
 CNTY.                       .:  COUNTY NAME
 DCON.         Sperry Drilling:  DIRECTNL CONTR
 UNIT.                11175629:  LOGGING EQUIPMENT ID
 GCDE.     Generic Lat/Long's, Degrees, -180 ==> +180:  GEO COORD DESC
 CCDE.     Indian 1975 (Zone 2A) Thailand CM 74:  CART COORD DESC
 GGSY.                      LL:  GEO GRID SYS
 CGSY.          SS INDIAN-CM74:  CART GRID SYS
 GREF.     Ellipsoid World Geodetic System :  GEO REFERENCE
 MMDL.            bggm2021.dat:  MAGNETIC MODEL
 MMDD.          05 April, 2022:  MAG DATA DATE
 MDS .              Win MagUTM:  MAG DATA SOURCE
 LLGR.      Latitude/Longitude:  LLGROUP
 XYGR.     Asian Coordinate Systems:  XYGROUP
 LOC .                        :  LOCATION
 TVDS.m                  64.55:  TVDSS CORRECTN
 LATI.deg                25.30:  LATITUDE
 LONG.deg                71.77:  LONGITUDE
 WHNS.m                   0.00:  WELL HEAD N/S
 WHEW.m                   0.00:  WELL HEAD E/W
 UTMX.m             2051879.80:  UTM X
 UTMY.m              878801.73:  UTM Y
 DFWL.m                   0.00:  DISTANCE FWL
 DFSL.m                   0.00:  DISTANCE FSL
 SDEP.m                   0.00:  START DEPTH
 TDD .m                   0.00:  TOTAL DEPTH (DRILLER)
 VSDR.deg               350.40:  VERT SEC DIRECT
 GVFD.g                   1.00:  GRAVITY FIELD
 MFLD.nT              45311.10:  MAGNETIC FIELD
 MDIP.deg                40.06:  MAGNETIC DIP
 MDEC.deg                 1.01:  MAGNETIC DECL
 GRDC.deg                -0.98:  GRID CORRECTION
 AZTC.deg                 1.99:  AZM TOTAL CORR
 EPD .m                   0.00:  ELEVATION
 EGL .m                  57.80:  GROUND ELEVATION
 WDMS.m                   0.00:  WD ELEV
 APD .m                  64.55:  DEPTH ABOVE PD
 AGAP.m                   6.75:  AIR GAP
 MMDE.m                   0.00:  MAGUTM CALC DEP
 CMER.deg                74.00:  CENTRL MERIDIAN
 DEP .m                 915.49:  DEPTH
 VSC .                       0:  VS TO CLOSURE
 MAGU.                 1603544:  MAGUTM CHECKSUM
~Curve Information Block
#MNEM.UNIT                 API CODE     Curve Description
#---------               -----------    ---------------------------
 DEPT.M                 00 000 000 000:  Depth
 TVD .m                 00 000 000 000:  True Vertical Depth
 SROP.m/hr              00 000 000 000:  Smoothed Rate of Penetration
 SGRC.api               00 000 000 000:  Smoothed Gamma Ray Combined Borehole Corrected
 ABG .api               00 000 000 000:  Smoothed At Bit Gamma Ray Combined BC
 SFXE.hr                00 000 000 000:  Smoothed Formation Exposure Time
 SEXP.ohmm              00 000 000 000:  Smoothed BC Extra Shallow Phase Resistivity
 SEXA.ohmm              00 000 000 000:  Smoothed BC Extra Shallow Attenuation Resistivity
 SESP.ohmm              00 000 000 000:  Smoothed BC Shallow Phase Resistivity
 SESA.ohmm              00 000 000 000:  Smoothed BC Shallow Attenuation Resistivity
 SEMP.ohmm              00 000 000 000:  Smoothed BC Medium Phase Resistivity
 SEMA.ohmm              00 000 000 000:  Smoothed BC Medium Attenuation Resistivity
 SEDP.ohmm              00 000 000 000:  Smoothed BC Deep Phase Resistivity
 SEDA.ohmm              00 000 000 000:  Smoothed BC Deep Attenuation Resistivity
 ALCDTQ.g/cc            00 000 000 000:  ALD Comp Density T-Quad
 ALCDRQ.g/cc            00 000 000 000:  ALD Comp Density R-Quad
 ALCDBQ.g/cc            00 000 000 000:  ALD Comp Density B-Quad
 ALCDLQ.g/cc            00 000 000 000:  ALD Comp Density L-Quad
 HSI .in                00 000 000 000:  ALD Hole Size Indicator
 SBD2.g/cc              00 000 000 000:  Smoothed Bulk Density
 SCO2.g/cc              00 000 000 000:  Smoothed Standoff Correction
 TNPS.pu                00 000 000 000:  CTN Porosity Sandstone
 PAP .psig              00 000 000 000:  Smoothed PWD Annular Pressure
 ECD .ppg               00 000 000 000:  Smoothed Equivalent Circulating Density
 TEMP.degC              00 000 000 000:  Temperature
#Other Information

#
~A   DEPT      TVD    SROP    SGRC     ABG    SFXE    SEXP    SEXA    SESP    SESA    SEMP    SEMA    SEDP    SEDA   ALCDTQ  ALCDRQ  ALCDBQ  ALCDLQ    HSI    SBD2    SCO2     TNPS     PAP     ECD    TEMP   
# ...
   1157.7828 1007.53   38.27   28.05   26.58    1.63    5.10    5.24    5.05    5.64    5.08    5.54    5.21    5.32    2.08    2.09    2.08    2.11    8.77    2.08    0.01    35.69 2091.13   12.17   54.69
   1157.9352 1007.67   37.81   29.87   29.75    1.63    5.14    5.21    5.05    5.62    5.07    5.50    5.17    5.49    2.10    2.11    2.10    2.11    8.99    2.11    0.03    34.77 2091.07   12.16   54.69
   1158.0876 1007.81   36.54   31.22   31.27    1.63    5.13    5.19    5.03    5.61    5.03    5.47    5.13    5.59    2.10    2.12    2.11    2.10    8.99    2.11    0.03    32.68 2091.18   12.16   54.69
   1158.2400 1007.93   31.18   26.58   30.42    1.63    5.07    5.19    4.97    5.65    4.96    5.43    5.10    5.34    2.10    2.11    2.11    2.09    8.99    2.10    0.03    32.86 2090.63   12.16   54.69
   1158.3924 1008.05   26.94   24.60   27.17    1.63    5.04    5.24    4.97    5.39    4.94    5.34    5.09    5.67    2.10    2.12    2.13    2.10    8.99    2.11    0.03    33.75 2091.27   12.16   54.69
   1158.5448 1008.20   30.74   29.32   29.06    1.63    4.97    5.11    4.90    5.33    4.89    5.23    5.01    5.44    2.11    2.14    2.14    2.11    9.00    2.13    0.03    32.00 2091.58   12.16   54.69
   1158.6972 1008.32   35.62   26.67   30.84    1.63    4.89    5.00    4.82    5.29    4.83    5.12    4.92    5.18    2.12    2.15    2.11    2.13    9.00    2.12    0.03    30.86 2092.04   12.16   54.69
   1158.8496 1008.46   35.64   35.46   34.65    1.63    4.78    5.00    4.76    5.21    4.73    4.97    4.80    4.92    2.14    2.13    2.13    2.14    9.00    2.13    0.03    32.36 2092.95   12.17   54.69
   1159.0020 1008.58   34.01   46.20   32.05    1.62    4.86    4.75    4.74    5.07    4.60    4.76    4.62    4.97    2.15    2.15    2.15    2.16    9.00    2.15    0.03    32.72 2093.14   12.16   54.69
   1159.1544 1008.73   33.83   50.29   36.40    1.62    4.67    4.66    4.50    4.80    4.36    4.59    4.39    4.80    2.16    2.14    2.17    2.18    8.97    2.16    0.03    33.88 2093.63   12.17   54.69
   1159.3068 1008.85   35.65   70.96   46.93    1.62    4.34    4.59    4.15    4.50    4.03    4.44    4.10    4.59    2.17    2.13    2.18    2.19    8.93    2.17    0.03    34.78 2093.93   12.17   54.69
   1159.4592 1008.99   37.63   83.99   64.72    1.62    3.79    4.37    3.68    4.49    3.56    4.43    3.77    4.91    2.18    2.17    2.19    2.19    8.93    2.18    0.03    39.48 2094.24   12.17   54.69
   1159.6116 1009.12   38.16  102.61   83.07    1.62    3.38    4.31    3.40    4.34    3.41    4.34    3.68    4.70    2.19    2.20    2.18    2.21    8.93    2.19    0.03    42.83 2094.31   12.16   54.69
   1159.7640 1009.25   38.17  108.99   95.46    1.62    3.20    4.22    3.27    4.31    3.36    4.36    3.67    4.60    2.20    2.19    2.19    2.19    8.93    2.19    0.03    45.59 2094.24   12.16   54.69
   1159.9164 1009.39   36.73  107.54  106.50    1.62    3.11    4.09    3.20    4.34    3.39    4.43    3.72    4.51    2.21    2.22    2.22    2.20    8.93    2.21    0.03    47.59 2094.98   12.17   54.69
   1160.0688 1009.51   33.06  100.66  117.48    1.62    3.33    4.12    3.38    4.22    3.59    4.23    3.87    4.43    2.22    2.23    2.22    2.22    8.92    2.22    0.03    48.76 2095.01   12.16   54.69
   1160.2212 1009.65   33.21  116.35  118.68    1.62    3.37    4.01    3.31    4.15    3.40    4.18    3.71    4.30    2.23    2.22    2.23    2.23    8.92    2.23    0.03    46.48 2095.62   12.17   54.69
   1160.3736 1009.78   36.39  120.21  116.68    1.62    3.38    3.98    3.32    4.13    3.33    4.12    3.61    4.26    2.23    2.21    2.22    2.23    8.92    2.22    0.03    46.11 2095.02   12.16   54.69
   1160.5260 1009.92   35.88  122.39  113.22    1.62    3.39    4.00    3.40    4.11    3.37    4.00    3.54    4.26    2.22    2.23    2.19    2.19    8.92    2.21    0.03    47.92 2095.50   12.16   54.69
   1160.6784 1010.04   31.73  114.92  106.36    1.62    3.61    3.76    3.59    3.85    3.53    3.72    3.61    4.10    2.19    2.17    2.14    2.17    8.92    2.17    0.03    44.47 2095.81   12.16   54.69
   1160.8308 1010.17   30.27  104.31  106.32    1.62    3.38    3.59    3.29    3.81    3.24    3.54    3.29    3.62    2.16    2.17    2.16    2.17    8.92    2.16    0.03    43.05 2095.85   12.16   54.69
   1160.9832 1010.31   35.12  105.30  106.54    1.62    3.16    3.49    3.08    3.73    3.00    3.48    3.06    3.51    2.16    2.18    2.19    2.19    8.92    2.17    0.03    44.94 2096.85   12.17   54.69
   1161.1356 1010.45   38.10  107.19  106.49    1.62    2.88    3.43    2.86    3.59    2.75    3.48    2.84    3.70    2.20    2.21    2.21    2.21    8.92    2.20    0.03    45.26 2096.69   12.16   54.69
   1161.2880 1010.57   34.96  106.72   98.78    1.62    2.69    3.34    2.68    3.47    2.70    3.36    2.84    3.75    2.22    2.19    2.20    2.22    8.92    2.21    0.03    47.24 2097.40   12.17   54.69
   1161.4404 1010.70   32.27  104.58  104.40    1.62    2.55    3.27    2.54    3.47    2.55    3.43    2.78    3.97    2.22    2.21    2.20    2.22    8.92    2.21    0.03    52.38 2097.09   12.16   54.69
   1161.5928 1010.84   34.91  102.48  107.40    1.62    2.47    3.30    2.45    3.56    2.46    3.60    2.77    4.22    2.24    2.19    2.18    2.22    8.92    2.22    0.03    54.15 2097.06   12.16   54.69
   1161.7452 1010.97   37.62   85.83  111.44    1.62    2.51    3.70    2.53    3.94    2.62    4.13    3.02    4.58    2.22    2.18    2.18    2.22    8.92    2.20    0.03    53.03 2098.14   12.16   54.69
   1161.8976 1011.11   35.82   82.61   95.83    1.62    3.33    3.96    3.45    4.20    3.73    4.34    4.05    4.86    2.19    2.18    2.19    2.21    8.93    2.19    0.03    51.68 2097.36   12.16   54.69
   1162.0500 1011.23   30.72   69.58   73.52    1.62    4.03    4.45    4.02    4.60    4.24    4.59    4.56    5.07    2.19    2.18    2.21    2.21    8.93    2.20    0.03    47.79 2094.43   12.14   54.69
   1162.2024 1011.37   25.02   56.58   55.50    1.62    5.10    5.38    4.84    5.31    4.78    5.01    5.04    5.36    2.20    2.19    2.23    2.23    8.81    2.22   -0.00    47.11 2095.28   12.14   54.69
   1162.3548 1011.48   22.99   56.19   55.58    1.62    6.65    6.73    6.51    6.16    5.65    5.53    5.41    5.50    2.26    2.30    2.41    2.42    8.69    2.36   -0.03    47.19 2094.38   12.14   54.69
   1162.5072 1011.64   26.60   52.72   59.99    1.62    7.37    7.41    6.74    6.89    5.82    6.18    5.87    5.50    2.40    2.43    2.38    2.39    8.69    2.47   -0.03    49.52 2089.25   12.11   54.69
   1162.6596 1011.75   28.91   66.37   65.33    1.62    7.04    8.62    6.53    8.03    6.02    6.72    5.89    5.97    2.38    2.39    2.26    2.27    8.69    2.47   -0.03    47.60 2090.15   12.11   54.69
   1162.8120 1011.90   31.46   59.51   60.87    1.62    6.81    9.34    6.79    8.82    6.49    7.28    6.48    6.14    2.22    2.21    2.15    2.16    8.85    2.35   -0.00    47.18 2090.89   12.11   54.69
   1162.9644 1012.03   36.32   64.11   61.74    1.62    6.94    9.69    7.15    9.50    7.22    7.80    7.17    6.34    2.14    2.15    2.17    2.18    9.01    2.15    0.03    52.44 2091.36   12.11   54.69
   1163.1168 1012.16   36.75   59.19   57.18    1.61    7.51    9.56    7.59   10.05    8.05    8.26    7.72    6.86    2.18    2.20    2.26    2.26    9.18    2.22    0.06    50.72 2091.59   12.11   54.69
   1163.2692 1012.29   36.84   63.85   49.10    1.61    8.29    8.88    8.07   10.02    8.43    8.57    7.96    7.64    2.28    2.31    2.30    2.32    9.18    2.30    0.06    45.52 2091.66   12.11   54.69
   1163.4216 1012.43   37.03   51.54   51.24    1.62    8.41    8.87    7.80    9.15    7.73    8.74    7.78    7.86    2.27    2.31    2.24    2.26    9.18    2.28    0.06    41.24 2093.07   12.12   54.69
   1163.5740 1012.56   37.62   48.88   50.84    1.62    7.98    8.72    7.53    9.51    7.28    8.65    7.55    8.51    2.24    2.26    2.21    2.21    9.14    2.24    0.05    39.34 2092.77   12.11   54.69
