~Version Information
 VERS.                  2.0:   CWLS log ASCII Standard -VERSION 2.0
 WRAP.                   NO:   One line per depth step
~Well Information Block
#MNEM.UNIT     VALUE/NAME     DESCRIPTION
#---------     -----------    ---------------------------
 STRT.M               914.0952: START DEPTH
 STOP.M              1646.9868: STOP DEPTH
 STEP.M                 0.1524: STEP DEPTH
 NULL.                 -999.25: NULL VALUE
 WTYP.                Deviated:  WELL TYPE
 DFWT.                        :  DIST FWL TEXT
 DFST.                        :  DIST FSL TEXT
 DMF .             Drill Floor:  DRILL MEAS FROM
 NREF.                    Grid:  NORTH REFERENCE
 HPTY.       Minimum Curvature:  HOLE POS TYPE
 DMOD.             Drill Model:  DRILL MOD DESC
 SVYD.                  Survey:  SURVEY DESC
 ILTD.               Lithology:  INTERP LTH DESC
 FTOP.          Formation Tops:  FORM TOPS DESC
 SON .        IN-XX-0907787982:  JOB NUMBER
 PDAT.          Mean Sea Level:  PERMANENT DATUM
 UWI .                      NA:  UNIQUE WELL IDENTIFIER
 API .                      NA:  API NUMBER
 MWDS.                  Taloja:  MWD SHOP
 JOBN.        IN-XX-0907787982:  JOB TICKET NUMB
 RIG .                   VG_9:  RIG NAME
 DOE .                      NA:  DOE NUMBER
 CNTY.                       .:  COUNTY NAME
 DCON.         Sperry Drilling:  DIRECTNL CONTR
 UNIT.                11175629:  LOGGING EQUIPMENT ID
 GCDE.     Generic Lat/Long's, Degrees, -180 ==> +180:  GEO COORD DESC
 CCDE.     Indian 1975 (Zone 2A) Thailand CM 74:  CART COORD DESC
 GGSY.                      LL:  GEO GRID SYS
 CGSY.          SS INDIAN-CM74:  CART GRID SYS
 GREF.     Ellipsoid World Geodetic System :  GEO REFERENCE
 MMDL.            bggm2021.dat:  MAGNETIC MODEL
 MMDD.          05 April, 2022:  MAG DATA DATE
 MDS .              Win MagUTM:  MAG DATA SOURCE
 LLGR.      Latitude/Longitude:  LLGROUP
 XYGR.     Asian Coordinate Systems:  XYGROUP
 LOC .                        :  LOCATION
 TVDS.m                  64.55:  TVDSS CORRECTN
 LATI.deg                25.30:  LATITUDE
 LONG.deg                71.77:  LONGITUDE
 WHNS.m                   0.00:  WELL HEAD N/S
 WHEW.m                   0.00:  WELL HEAD E/W
 UTMX.m             2051879.80:  UTM X
 UTMY.m              878801.73:  UTM Y
 DFWL.m                   0.00:  DISTANCE FWL
 DFSL.m                   0.00:  DISTANCE FSL
 SDEP.m                   0.00:  START DEPTH
 TDD .m                   0.00:  TOTAL DEPTH (DRILLER)
 VSDR.deg               350.40:  VERT SEC DIRECT
 GVFD.g                   1.00:  GRAVITY FIELD
 MFLD.nT              45311.10:  MAGNETIC FIELD
 MDIP.deg                40.06:  MAGNETIC DIP
 MDEC.deg                 1.01:  MAGNETIC DECL
 GRDC.deg                -0.98:  GRID CORRECTION
 AZTC.deg                 1.99:  AZM TOTAL CORR
 EPD .m                   0.00:  ELEVATION
 EGL .m                  57.80:  GROUND ELEVATION
 WDMS.m                   0.00:  WD ELEV
 APD .m                  64.55:  DEPTH ABOVE PD
 AGAP.m                   6.75:  AIR GAP
 MMDE.m                   0.00:  MAGUTM CALC DEP
 CMER.deg                74.00:  CENTRL MERIDIAN
 DEP .m                 915.49:  DEPTH
 VSC .                       0:  VS TO CLOSURE
 MAGU.                 1603544:  MAGUTM CHECKSUM
~Curve Information Block
#MNEM.UNIT                 API CODE     Curve Description
#---------               -----------    ---------------------------
 DEPT.M                 00 000 000 000:  Depth
 TVD .m                 00 000 000 000:  True Vertical Depth
 SROP.m/hr              00 000 000 000:  Smoothed Rate of Penetration
 SGRC.api               00 000 000 000:  Smoothed Gamma Ray Combined Borehole Corrected
 ABG .api               00 000 000 000:  Smoothed At Bit Gamma Ray Combined BC
 SFXE.hr                00 000 000 000:  Smoothed Formation Exposure Time
 SEXP.ohmm              00 000 000 000:  Smoothed BC Extra Shallow Phase Resistivity
 SEXA.ohmm              00 000 000 000:  Smoothed BC Extra Shallow Attenuation Resistivity
 SESP.ohmm              00 000 000 000:  Smoothed BC Shallow Phase Resistivity
 SESA.ohmm              00 000 000 000:  Smoothed BC Shallow Attenuation Resistivity
 SEMP.ohmm              00 000 000 000:  Smoothed BC Medium Phase Resistivity
 SEMA.ohmm              00 000 000 000:  Smoothed BC Medium Attenuation Resistivity
 SEDP.ohmm              00 000 000 000:  Smoothed BC Deep Phase Resistivity
 SEDA.ohmm              00 000 000 000:  Smoothed BC Deep Attenuation Resistivity
 ALCDTQ.g/cc            00 000 000 000:  ALD Comp Density T-Quad
 ALCDRQ.g/cc            00 000 000 000:  ALD Comp Density R-Quad
 ALCDBQ.g/cc            00 000 000 000:  ALD Comp Density B-Quad
 ALCDLQ.g/cc            00 000 000 000:  ALD Comp Density L-Quad
 HSI .in                00 000 000 000:  ALD Hole Size Indicator
 SBD2.g/cc              00 000 000 000:  Smoothed Bulk Density
 SCO2.g/cc              00 000 000 000:  Smoothed Standoff Correction
 TNPS.pu                00 000 000 000:  CTN Porosity Sandstone
 PAP .psig              00 000 000 000:  Smoothed PWD Annular Pressure
 ECD .ppg               00 000 000 000:  Smoothed Equivalent Circulating Density
 TEMP.degC              00 000 000 000:  Temperature
#Other Information

#
~A   DEPT      TVD    SROP    SGRC     ABG    SFXE    SEXP    SEXA    SESP    SESA    SEMP    SEMA    SEDP    SEDA   ALCDTQ  ALCDRQ  ALCDBQ  ALCDLQ    HSI    SBD2    SCO2     TNPS     PAP     ECD    TEMP   
# ...
    925.9824 -999.25 -999.25 -999.25 -999.25 -999.25 -999.25 -999.25 -999.25 -999.25 -999.25 -999.25 -999.25 -999.25    2.05 -999.25 -999.25    2.08    5.58    2.09   -0.25    68.95 1590.19   11.49 -999.25
    926.1348 -999.25 -999.25 -999.25 -999.25 -999.25 -999.25 -999.25 -999.25 -999.25 -999.25 -999.25 -999.25 -999.25    2.05 -999.25 -999.25    2.12    5.53    2.13   -0.25    69.08 1599.69   11.56 -999.25
    926.2872 -999.25 -999.25 -999.25 -999.25 -999.25 -999.25 -999.25 -999.25 -999.25 -999.25 -999.25 -999.25 -999.25    2.14 -999.25 -999.25    2.12    5.53    2.12   -0.25    68.72 1607.66   11.61 -999.25
    926.4396 -999.25 -999.25 -999.25 -999.25 -999.25 -999.25 -999.25 -999.25 -999.25 -999.25 -999.25 -999.25 -999.25    2.12 -999.25 -999.25    2.11    5.32    2.09   -0.25    68.30 1607.40   11.61 -999.25
    926.5920 -999.25 -999.25 -999.25 -999.25 -999.25 -999.25 -999.25 -999.25 -999.25 -999.25 -999.25 -999.25 -999.25    2.08 -999.25 -999.25    2.10    5.11    2.07   -0.25    67.20 1611.31   11.63 -999.25
    926.7444 -999.25 -999.25 -999.25 -999.25 -999.25 -999.25 -999.25 -999.25 -999.25 -999.25 -999.25 -999.25 -999.25    2.06 -999.25 -999.25    2.09    4.91    2.07   -0.25    63.83 1609.57   11.62 -999.25
    926.8968 -999.25 -999.25 -999.25 -999.25 -999.25 -999.25 -999.25 -999.25 -999.25 -999.25 -999.25 -999.25 -999.25    2.07 -999.25 -999.25    2.08    4.91    2.07   -0.25    64.26 1612.92   11.64 -999.25
    927.0492 -999.25 -999.25 -999.25 -999.25 -999.25 -999.25 -999.25 -999.25 -999.25 -999.25 -999.25 -999.25 -999.25    2.07 -999.25 -999.25    2.06    5.04    2.05   -0.25    65.57 1607.27   11.60 -999.25
    927.2016 -999.25 -999.25 -999.25 -999.25 -999.25 -999.25 -999.25 -999.25 -999.25 -999.25 -999.25 -999.25 -999.25    2.08 -999.25 -999.25    2.07    5.18    2.08   -0.25    69.13 1613.99   11.65 -999.25
    927.3540 -999.25 -999.25 -999.25 -999.25 -999.25 -999.25 -999.25 -999.25 -999.25 -999.25 -999.25 -999.25 -999.25    2.09 -999.25 -999.25    2.11    5.32    2.11   -0.25    70.16 1608.98   11.61 -999.25
    927.5064 -999.25 -999.25 -999.25 -999.25 -999.25 -999.25 -999.25 -999.25 -999.25 -999.25 -999.25 -999.25 -999.25    2.09 -999.25 -999.25    2.12    5.32    2.10   -0.25    70.27 1611.53   11.63 -999.25
    927.6588 -999.25 -999.25 -999.25 -999.25 -999.25 -999.25 -999.25 -999.25 -999.25 -999.25 -999.25 -999.25 -999.25    2.13 -999.25 -999.25    2.08    5.32    2.10   -0.25    70.93 1612.07   11.63 -999.25
    927.8112 -999.25 -999.25 -999.25 -999.25 -999.25 -999.25 -999.25 -999.25 -999.25 -999.25 -999.25 -999.25 -999.25    2.14 -999.25 -999.25    2.07    5.17    2.10   -0.25    67.61 1611.09   11.62 -999.25
    927.9636 -999.25 -999.25 -999.25 -999.25 -999.25 -999.25 -999.25 -999.25 -999.25 -999.25 -999.25 -999.25 -999.25    2.09 -999.25 -999.25    2.08    5.17    2.09   -0.25    74.31 1609.55   11.61 -999.25
    928.1160 -999.25 -999.25 -999.25 -999.25 -999.25 -999.25 -999.25 -999.25 -999.25 -999.25 -999.25 -999.25 -999.25    2.05 -999.25 -999.25    2.08    4.93    2.08   -0.25    70.51 1609.35   11.60 -999.25
    928.2684 -999.25 -999.25 -999.25 -999.25 -999.25   25.96    0.69  104.29    0.17  196.27    0.10 1997.69  200.00    2.00 -999.25 -999.25    2.05    4.70    2.06   -0.25    67.66 1612.83   11.63 -999.25
    928.4208 -999.25 -999.25 -999.25 -999.25 -999.25   25.96    0.69  104.29    0.17  196.27    0.10 1997.69  200.00    2.00 -999.25 -999.25    2.04    4.46    2.02   -0.25    66.40 1612.23   11.62   51.27
    928.5732 -999.25 -999.25 -999.25 -999.25 -999.25   24.84    0.71   97.89    0.17  197.78    0.10 1997.94  200.00    2.00 -999.25 -999.25    2.01    4.22    1.99   -0.25    68.54 1608.07   11.59   55.19
    928.7256 -999.25 -999.25 -999.25 -999.25 -999.25   23.72    0.72   91.49    0.17  199.30    0.10 1998.19  200.00    2.03 -999.25 -999.25    1.98    4.22    2.02   -0.25    68.55 1600.53   11.53   58.11
    928.8780 -999.25 -999.25 -999.25 -999.25 -999.25   22.60    0.73   85.09    0.17  200.81    0.10 1998.44  200.00    2.03 -999.25 -999.25    1.97    3.73    2.00   -0.25    73.43 1599.16   11.52   52.84
    929.0304 -999.25 -999.25 -999.25 -999.25 -999.25   21.48    0.75   78.70    0.17  202.33    0.11 1998.69  200.00    2.03 -999.25 -999.25    1.92    3.23    1.92   -0.25    72.21 1595.82   11.49   51.27
    929.1828 -999.25 -999.25 -999.25 -999.25 -999.25   22.99    0.78   79.63    0.17  193.89    0.11 1998.68  200.00    1.96 -999.25 -999.25    1.91    2.73    1.95   -0.25    69.82 1600.57   11.53   52.98
    929.3352 -999.25 -999.25 -999.25 -999.25 -999.25   36.22    1.02   97.70    0.18  230.11    0.11 1998.65  200.00    1.96 -999.25 -999.25    1.94    2.73    1.97   -0.25    68.59 1616.75   11.64   54.69
    929.4876 -999.25 -999.25 -999.25 -999.25 -999.25   24.97    0.82   68.92    0.17  146.42    0.11 1998.52  199.99    2.00 -999.25 -999.25    2.04    4.22    2.01   -0.25    68.80 1614.94   11.63   54.69
    929.6400 -999.25 -999.25 -999.25 -999.25 -999.25   20.85    0.73   60.62    0.16  117.31    0.11 1998.70  199.99    2.03 -999.25 -999.25    2.07    4.22    2.04   -0.25    66.44 1615.48   11.63   51.27
    929.7924 -999.25 -999.25 -999.25 -999.25 -999.25   23.86    0.67   69.25    0.16  127.79    0.10 1998.29  200.00    2.04 -999.25 -999.25    2.07    4.22    2.02   -0.25    70.30 1615.00   11.62   51.27
    929.9448 -999.25 -999.25 -999.25 -999.25 -999.25   20.74    0.64   61.50    0.16   97.05    0.10 1998.40  200.00    2.01 -999.25 -999.25    2.03    4.02    1.98   -0.25    72.03 1614.75   11.62   49.94
    930.0972 -999.25 -999.25   39.57 -999.25 -999.25   17.70    0.51   69.27    0.15  175.26    0.10 1998.65  200.00    1.98 -999.25 -999.25    1.99    3.81    1.96   -0.25    70.53 1617.10   11.64   48.62
    930.2496 -999.25 -999.25   45.10 -999.25 -999.25   18.54    0.57   71.69    0.16  374.77    0.10 1998.65  200.00    1.97 -999.25 -999.25    1.97    3.60    1.98   -0.25    69.71 1616.79   11.63   47.29
    930.4020 -999.25 -999.25   50.62 -999.25 -999.25   18.70    0.66   76.76    0.17  506.25    0.11 1998.65  200.00    1.97 -999.25 -999.25    1.98    3.63    2.01   -0.25    70.67 1618.93   11.64   45.96
    930.5544 -999.25 -999.25   56.28 -999.25 -999.25   17.85    0.74   85.43    0.18  267.89    0.11 1998.65  200.00    1.96 -999.25 -999.25    1.97    3.77    2.00   -0.25    70.18 1617.81   11.63   44.63
    930.7068 -999.25 -999.25   49.77 -999.25 -999.25   16.56    0.72   70.82    0.18  210.12    0.11 1998.65  200.00    1.96 -999.25 -999.25    2.01    3.77    1.98   -0.25    68.33 1618.07   11.64   44.68
    930.8592 -999.25 -999.25   43.26 -999.25 -999.25   11.78    0.44   80.21    0.17  227.32    0.12 1998.65  200.00    1.95 -999.25 -999.25    2.03    2.98    1.93   -0.25    69.91 1615.14   11.61   45.94
    931.0116 -999.25 -999.25   43.55 -999.25 -999.25   19.41    0.60   61.73    0.16  117.38    0.10 1997.99  200.00    1.96 -999.25 -999.25    1.99    2.98    1.95   -0.25    68.09 1618.30   11.63   44.96
    931.1640 -999.25 -999.25   36.78 -999.25 -999.25   19.98    0.58   67.90    0.15  231.50    0.10 1998.20  200.00    1.94 -999.25 -999.25    1.95    2.98    1.93   -0.25    68.85 1616.85   11.62   46.33
    931.3164 -999.25 -999.25   51.72 -999.25 -999.25   16.89    0.54   73.95    0.16  236.30    0.10 1998.65  200.00    1.93 -999.25 -999.25    1.95    2.16    1.92   -0.25    66.72 1618.55   11.63   48.90
    931.4688 -999.25 -999.25   52.04 -999.25 -999.25   16.47    0.61   85.43    0.17  184.55    0.10 1998.65  200.00    1.88 -999.25 -999.25    1.92    2.16    1.93   -0.25    68.10 1619.07   11.63   45.04
    931.6212 -999.25 -999.25   49.54 -999.25 -999.25   16.74    0.73  101.69    0.19  192.55    0.11 1998.65  200.00    1.83 -999.25 -999.25    1.90    2.16    1.88   -0.25    70.67 1618.98   11.63   44.43
    931.7736 -999.25 -999.25   49.12 -999.25 -999.25   16.82    0.87  100.82    0.20  208.75    0.11 1998.65  200.00    1.78 -999.25 -999.25    1.85    2.00    1.80   -0.25    73.12 1620.91   11.64   44.43
