~Version Information
 VERS.                  2.0:   CWLS log ASCII Standard -VERSION 2.0
 WRAP.                   NO:   One line per depth step
~Well Information Block
#MNEM.UNIT     VALUE/NAME     DESCRIPTION
#---------     -----------    ---------------------------
 STRT.M               914.0952: START DEPTH
 STOP.M              1646.9868: STOP DEPTH
 STEP.M                 0.1524: STEP DEPTH
 NULL.                 -999.25: NULL VALUE
 WTYP.                Deviated:  WELL TYPE
 DFWT.                        :  DIST FWL TEXT
 DFST.                        :  DIST FSL TEXT
 DMF .             Drill Floor:  DRILL MEAS FROM
 NREF.                    Grid:  NORTH REFERENCE
 HPTY.       Minimum Curvature:  HOLE POS TYPE
 DMOD.             Drill Model:  DRILL MOD DESC
 SVYD.                  Survey:  SURVEY DESC
 ILTD.               Lithology:  INTERP LTH DESC
 FTOP.          Formation Tops:  FORM TOPS DESC
 SON .        IN-XX-0907787982:  JOB NUMBER
 PDAT.          Mean Sea Level:  PERMANENT DATUM
 UWI .                      NA:  UNIQUE WELL IDENTIFIER
 API .                      NA:  API NUMBER
 MWDS.                  Taloja:  MWD SHOP
 JOBN.        IN-XX-0907787982:  JOB TICKET NUMB
 RIG .                   VG_9:  RIG NAME
 DOE .                      NA:  DOE NUMBER
 CNTY.                       .:  COUNTY NAME
 DCON.         Sperry Drilling:  DIRECTNL CONTR
 UNIT.                11175629:  LOGGING EQUIPMENT ID
 GCDE.     Generic Lat/Long's, Degrees, -180 ==> +180:  GEO COORD DESC
 CCDE.     Indian 1975 (Zone 2A) Thailand CM 74:  CART COORD DESC
 GGSY.                      LL:  GEO GRID SYS
 CGSY.          SS INDIAN-CM74:  CART GRID SYS
 GREF.     Ellipsoid World Geodetic System :  GEO REFERENCE
 MMDL.            bggm2021.dat:  MAGNETIC MODEL
 MMDD.          05 April, 2022:  MAG DATA DATE
 MDS .              Win MagUTM:  MAG DATA SOURCE
 LLGR.      Latitude/Longitude:  LLGROUP
 XYGR.     Asian Coordinate Systems:  XYGROUP
 LOC .                        :  LOCATION
 TVDS.m                  64.55:  TVDSS CORRECTN
 LATI.deg                25.30:  LATITUDE
 LONG.deg                71.77:  LONGITUDE
 WHNS.m                   0.00:  WELL HEAD N/S
 WHEW.m                   0.00:  WELL HEAD E/W
 UTMX.m             2051879.80:  UTM X
 UTMY.m              878801.73:  UTM Y
 DFWL.m                   0.00:  DISTANCE FWL
 DFSL.m                   0.00:  DISTANCE FSL
 SDEP.m                   0.00:  START DEPTH
 TDD .m                   0.00:  TOTAL DEPTH (DRILLER)
 VSDR.deg               350.40:  VERT SEC DIRECT
 GVFD.g                   1.00:  GRAVITY FIELD
 MFLD.nT              45311.10:  MAGNETIC FIELD
 MDIP.deg                40.06:  MAGNETIC DIP
 MDEC.deg                 1.01:  MAGNETIC DECL
 GRDC.deg                -0.98:  GRID CORRECTION
 AZTC.deg                 1.99:  AZM TOTAL CORR
 EPD .m                   0.00:  ELEVATION
 EGL .m                  57.80:  GROUND ELEVATION
 WDMS.m                   0.00:  WD ELEV
 APD .m                  64.55:  DEPTH ABOVE PD
 AGAP.m                   6.75:  AIR GAP
 MMDE.m                   0.00:  MAGUTM CALC DEP
 CMER.deg                74.00:  CENTRL MERIDIAN
 DEP .m                 915.49:  DEPTH
 VSC .                       0:  VS TO CLOSURE
 MAGU.                 1603544:  MAGUTM CHECKSUM
~Curve Information Block
#MNEM.UNIT                 API CODE     Curve Description
#---------               -----------    ---------------------------
 DEPT.M                 00 000 000 000:  Depth
 TVD .m                 00 000 000 000:  True Vertical Depth
 SROP.m/hr              00 000 000 000:  Smoothed Rate of Penetration
 SGRC.api               00 000 000 000:  Smoothed Gamma Ray Combined Borehole Corrected
 ABG .api               00 000 000 000:  Smoothed At Bit Gamma Ray Combined BC
 SFXE.hr                00 000 000 000:  Smoothed Formation Exposure Time
 SEXP.ohmm              00 000 000 000:  Smoothed BC Extra Shallow Phase Resistivity
 SEXA.ohmm              00 000 000 000:  Smoothed BC Extra Shallow Attenuation Resistivity
 SESP.ohmm              00 000 000 000:  Smoothed BC Shallow Phase Resistivity
 SESA.ohmm              00 000 000 000:  Smoothed BC Shallow Attenuation Resistivity
 SEMP.ohmm              00 000 000 000:  Smoothed BC Medium Phase Resistivity
 SEMA.ohmm              00 000 000 000:  Smoothed BC Medium Attenuation Resistivity
 SEDP.ohmm              00 000 000 000:  Smoothed BC Deep Phase Resistivity
 SEDA.ohmm              00 000 000 000:  Smoothed BC Deep Attenuation Resistivity
 ALCDTQ.g/cc            00 000 000 000:  ALD Comp Density T-Quad
 ALCDRQ.g/cc            00 000 000 000:  ALD Comp Density R-Quad
 ALCDBQ.g/cc            00 000 000 000:  ALD Comp Density B-Quad
 ALCDLQ.g/cc            00 000 000 000:  ALD Comp Density L-Quad
 HSI .in                00 000 000 000:  ALD Hole Size Indicator
 SBD2.g/cc              00 000 000 000:  Smoothed Bulk Density
 SCO2.g/cc              00 000 000 000:  Smoothed Standoff Correction
 TNPS.pu                00 000 000 000:  CTN Porosity Sandstone
 PAP .psig              00 000 000 000:  Smoothed PWD Annular Pressure
 ECD .ppg               00 000 000 000:  Smoothed Equivalent Circulating Density
 TEMP.degC              00 000 000 000:  Temperature
#Other Information

#
~A   DEPT      TVD    SROP    SGRC     ABG    SFXE    SEXP    SEXA    SESP    SESA    SEMP    SEMA    SEDP    SEDA   ALCDTQ  ALCDRQ  ALCDBQ  ALCDLQ    HSI    SBD2    SCO2     TNPS     PAP     ECD    TEMP   
# ...
   1395.5268 1213.63   10.33   77.21   77.15    2.21    1.45    1.69    1.47    1.76    1.49    1.78    1.58    1.64    2.28    2.27    2.33    2.31    8.59    2.28   -0.00    50.17 2500.58   12.08   53.83
   1395.6792 1213.76   11.10   70.40   73.31    2.23    1.57    1.64    1.58    1.71    1.63    1.74    1.65    1.57    2.35    2.34    2.45    2.47    8.64    2.41   -0.01    51.22 2500.58   12.08   53.83
   1395.8316 1213.89   11.04   62.82   78.84    2.30    1.63    1.56    1.62    1.59    1.67    1.60    1.64    1.50    2.51    2.40    2.44    2.57    8.75    2.58   -0.01    51.79 2500.92   12.08   53.83
   1395.9840 1214.02   10.50   67.30   84.33    2.43    1.51    1.44    1.45    1.43    1.44    1.42    1.45    1.42    2.52    2.36    2.31    2.49    9.83    2.58    0.12    48.33 2501.31   12.08   53.83
   1396.1364 1214.16   10.21   79.65   82.77    2.44    1.21    1.35    1.16    1.39    1.10    1.48    1.19    1.43    2.33    2.21    2.18    2.26    9.34    2.32    0.07    45.73 2501.61   12.08   53.83
   1396.2888 1214.28   10.27   79.80   78.96    2.46    1.14    1.30    1.14    1.37    1.14    1.44    1.23    1.44    2.17    2.17    2.15    2.14    8.92    2.15    0.03    50.65 2501.71   12.08   53.83
   1396.4412 1214.42   10.67   81.77   76.24    2.48    1.14    1.27    1.12    1.34    1.15    1.40    1.25    1.43    2.15    2.18    2.17    2.14    8.94    2.15    0.03    55.97 2502.20   12.08   53.83
   1396.5936 1214.55   11.21   82.34   75.71    2.51    1.12    1.27    1.08    1.32    1.07    1.42    1.19    1.45    2.18    2.17    2.18    2.16    8.93    2.18    0.03    56.42 2502.48   12.08   53.83
   1396.7460 1214.68   11.11   81.95   73.50    2.51    1.13    1.32    1.11    1.35    1.09    1.44    1.21    1.48    2.18    2.18    2.17    2.16    8.91    2.18    0.03    55.05 2502.97   12.08   53.83
   1396.8984 1214.82   11.32   88.68   79.34    2.51    1.19    1.32    1.15    1.34    1.15    1.35    1.22    1.38    2.16    2.15    2.15    2.17    8.91    2.16    0.03    54.11 2503.07   12.08   53.83
   1397.0508 1214.95   11.53   88.70   77.03    2.50    1.18    1.33    1.14    1.38    1.12    1.39    1.18    1.37    2.17    2.16    2.17    2.16    8.92    2.17    0.03    55.01 2503.24   12.08   53.83
   1397.2032 1215.08   11.05   86.61   79.16    2.50    1.20    1.39    1.21    1.42    1.20    1.45    1.24    1.35    2.18    2.24    2.22    2.16    9.39    2.21    0.06    56.84 2503.68   12.08   53.83
   1397.3556 1215.22   11.11   81.09   81.71    2.50    1.27    1.35    1.28    1.38    1.35    1.37    1.37    1.23    2.20    2.24    2.22    2.17    9.39    2.28    0.06    53.09 2503.98   12.08   53.83
   1397.5080 1215.34   11.13   78.08   84.72    2.50    1.21    1.34    1.18    1.36    1.21    1.34    1.20    1.24    2.23    2.24    2.18    2.17    9.14    2.27    0.04    52.10 2504.63   12.08   53.83
   1397.6604 1215.48   11.27   78.35   80.36    2.50    1.14    1.31    1.12    1.35    1.12    1.34    1.14    1.26    2.19    2.18    2.17    2.16    8.93    2.17    0.03    54.97 2504.54   12.08   53.83
   1397.8128 1215.61   11.55   82.58   77.04    2.50    1.14    1.30    1.08    1.36    1.10    1.37    1.13    1.28    2.17    2.18    2.20    2.16    8.92    2.17    0.03    55.96 2504.26   12.08   54.20
   1397.9652 1215.75   11.44   83.61   77.25    2.50    1.17    1.30    1.12    1.33    1.11    1.39    1.16    1.28    2.18    2.17    2.25    2.17    9.05    2.21    0.03    55.88 2504.51   12.08   54.55
   1398.1176 1215.88   11.50   84.49   80.25    2.50    1.21    1.31    1.16    1.34    1.13    1.40    1.20    1.30    2.18    2.18    2.22    2.18    8.97    2.20    0.03    55.73 2504.68   12.07   54.69
   1398.2700 1216.01   11.40   83.71   84.47    2.50    1.22    1.35    1.20    1.38    1.18    1.40    1.23    1.37    2.18    2.18    2.17    2.17    8.95    2.17    0.03    56.23 2505.03   12.08   54.69
   1398.4224 1216.14   10.93   86.20   81.06    2.50    1.22    1.38    1.20    1.43    1.20    1.43    1.22    1.39    2.17    2.18    2.17    2.18    8.91    2.17    0.03    54.48 2504.98   12.07   54.69
   1398.5748 1216.27   10.57   84.78   77.96    2.49    1.25    1.43    1.22    1.47    1.25    1.48    1.28    1.43    2.18    2.18    2.17    2.18    8.91    2.18    0.03    54.05 2505.09   12.07   54.69
   1398.7272 1216.41   10.86   87.76   72.24    2.49    1.30    1.48    1.27    1.52    1.28    1.53    1.35    1.48    2.17    2.18    2.15    2.18    9.04    2.18    0.03    53.67 2505.01   12.07   54.69
   1398.8796 1216.54   10.49   89.84   70.25    2.49    1.36    1.53    1.32    1.57    1.32    1.60    1.42    1.52    2.17    2.17    2.14    2.16    9.36    2.16    0.06    53.49 2505.40   12.07   54.69
   1399.0320 1216.67   10.14   84.29   73.08    2.49    1.42    1.62    1.38    1.64    1.38    1.66    1.47    1.61    2.17    2.16    2.16    2.15    8.99    2.15    0.03    52.85 2505.67   12.07   54.69
   1399.1844 1216.80   10.71   78.35   79.39    2.49    1.52    1.72    1.48    1.76    1.47    1.82    1.54    1.69    2.16    2.14    2.19    2.19    9.00    2.19    0.00    53.23 2505.70   12.07   54.69
   1399.3368 1216.94   11.58   74.34   84.58    2.49    1.70    1.79    1.68    1.82    1.75    1.80    1.83    1.62    2.18    2.16    2.25    2.32    9.20    2.34   -0.07    52.36 2505.88   12.07   54.69
   1399.4892 1217.07   11.48   81.14   93.05    2.48    1.76    1.87    1.72    1.86    1.76    1.78    1.77    1.66    2.27    2.23    2.26    2.32   10.09    2.50    0.08    53.60 2505.73   12.07   54.69
   1399.6416 1217.21   10.63   86.57   94.13    2.48    1.64    1.87    1.63    1.86    1.61    1.81    1.63    1.70    2.34    2.21    2.19    2.28   10.36    2.40    0.12    47.75 2506.24   12.07   54.69
   1399.7940 1217.33   10.20   87.20   87.87    2.48    1.56    1.86    1.55    1.92    1.57    1.86    1.61    1.76    2.21    2.16    2.14    2.17    8.92    2.21    0.03    50.86 2506.72   12.07   54.69
   1399.9464 1217.47   10.45   90.87   89.02    2.48    1.54    1.84    1.52    1.92    1.58    1.90    1.63    1.76    2.18    2.15    2.15    2.15    8.92    2.15    0.03    53.70 2506.85   12.07   54.69
   1400.0988 1217.60   10.58   94.46   91.65    2.48    1.57    1.81    1.55    1.91    1.60    1.97    1.71    1.87    2.16    2.14    2.13    2.15    8.94    2.15    0.03    53.02 2504.41   12.06   54.69
   1400.2512 1217.73   10.18   91.66   93.51    2.47    1.63    1.86    1.59    1.92    1.61    1.98    1.77    1.93    2.14    2.13    2.10    2.13    8.95    2.13    0.03    55.38 2502.20   12.04   54.69
   1400.4036 1217.87   10.42   95.18   95.23    2.47    1.69    1.91    1.64    1.97    1.63    2.02    1.76    1.98    2.12    2.10    2.11    2.12    8.97    2.12    0.03    55.55 2504.36   12.05   54.69
   1400.5560 1218.00   10.73   93.98   91.30    2.47    1.77    1.98    1.74    2.00    1.74    1.99    1.86    1.94    2.12    2.11    2.13    2.12    8.98    2.12    0.03    53.50 2506.77   12.06   54.69
   1400.7084 1218.13   10.78   93.90   89.77    2.47    1.82    2.01    1.77    2.03    1.77    1.99    1.86    1.93    2.12    2.13    2.14    2.14    8.96    2.13    0.03    53.01 2507.77   12.07   54.69
   1400.8608 1218.31    8.28   93.99   91.03    2.47    1.87    2.03    1.83    2.04    1.81    1.99    1.87    1.86    2.14    2.14    2.15    2.15    8.95    2.14    0.03    52.10 2508.00   12.07   54.69
   1401.0132 1218.39    4.87   96.76   90.95    2.42    1.89    1.98    1.86    1.98    1.90    1.87    1.94    1.82    2.15    2.16    2.16    2.16    8.94    2.16    0.03    51.20 2508.61   12.07   54.69
   1401.1656 1218.49    3.36   92.64   92.13    2.42    1.72    1.88    1.68    1.91    1.66    1.85    1.69    1.78    2.15    2.15    2.16    2.15    8.93    2.15    0.03    51.64 2509.24   12.07   54.69
   1401.3180 1218.66    5.60   86.26   85.09    2.38    1.54    1.80    1.52    1.85    1.48    1.85    1.52    1.77    2.16    2.17    2.16    2.16    8.93    2.16    0.02    50.92 2509.66   12.07   54.69
