~Version Information
 VERS.                  2.0:   CWLS log ASCII Standard -VERSION 2.0
 WRAP.                   NO:   One line per depth step
~Well Information Block
#MNEM.UNIT     VALUE/NAME     DESCRIPTION
#---------     -----------    ---------------------------
 STRT.M               914.0952: START DEPTH
 STOP.M              1646.9868: STOP DEPTH
 STEP.M                 0.1524: STEP DEPTH
 NULL.                 -999.25: NULL VALUE
 WTYP.                Deviated:  WELL TYPE
 DFWT.                        :  DIST FWL TEXT
 DFST.                        :  DIST FSL TEXT
 DMF .             Drill Floor:  DRILL MEAS FROM
 NREF.                    Grid:  NORTH REFERENCE
 HPTY.       Minimum Curvature:  HOLE POS TYPE
 DMOD.             Drill Model:  DRILL MOD DESC
 SVYD.                  Survey:  SURVEY DESC
 ILTD.               Lithology:  INTERP LTH DESC
 FTOP.          Formation Tops:  FORM TOPS DESC
 SON .        IN-XX-0907787982:  JOB NUMBER
 PDAT.          Mean Sea Level:  PERMANENT DATUM
 UWI .                      NA:  UNIQUE WELL IDENTIFIER
 API .                      NA:  API NUMBER
 MWDS.                  Taloja:  MWD SHOP
 JOBN.        IN-XX-0907787982:  JOB TICKET NUMB
 RIG .                   VG_9:  RIG NAME
 DOE .                      NA:  DOE NUMBER
 CNTY.                       .:  COUNTY NAME
 DCON.         Sperry Drilling:  DIRECTNL CONTR
 UNIT.                11175629:  LOGGING EQUIPMENT ID
 GCDE.     Generic Lat/Long's, Degrees, -180 ==> +180:  GEO COORD DESC
 CCDE.     Indian 1975 (Zone 2A) Thailand CM 74:  CART COORD DESC
 GGSY.                      LL:  GEO GRID SYS
 CGSY.          SS INDIAN-CM74:  CART GRID SYS
 GREF.     Ellipsoid World Geodetic System :  GEO REFERENCE
 MMDL.            bggm2021.dat:  MAGNETIC MODEL
 MMDD.          05 April, 2022:  MAG DATA DATE
 MDS .              Win MagUTM:  MAG DATA SOURCE
 LLGR.      Latitude/Longitude:  LLGROUP
 XYGR.     Asian Coordinate Systems:  XYGROUP
 LOC .                        :  LOCATION
 TVDS.m                  64.55:  TVDSS CORRECTN
 LATI.deg                25.30:  LATITUDE
 LONG.deg                71.77:  LONGITUDE
 WHNS.m                   0.00:  WELL HEAD N/S
 WHEW.m                   0.00:  WELL HEAD E/W
 UTMX.m             2051879.80:  UTM X
 UTMY.m              878801.73:  UTM Y
 DFWL.m                   0.00:  DISTANCE FWL
 DFSL.m                   0.00:  DISTANCE FSL
 SDEP.m                   0.00:  START DEPTH
 TDD .m                   0.00:  TOTAL DEPTH (DRILLER)
 VSDR.deg               350.40:  VERT SEC DIRECT
 GVFD.g                   1.00:  GRAVITY FIELD
 MFLD.nT              45311.10:  MAGNETIC FIELD
 MDIP.deg                40.06:  MAGNETIC DIP
 MDEC.deg                 1.01:  MAGNETIC DECL
 GRDC.deg                -0.98:  GRID CORRECTION
 AZTC.deg                 1.99:  AZM TOTAL CORR
 EPD .m                   0.00:  ELEVATION
 EGL .m                  57.80:  GROUND ELEVATION
 WDMS.m                   0.00:  WD ELEV
 APD .m                  64.55:  DEPTH ABOVE PD
 AGAP.m                   6.75:  AIR GAP
 MMDE.m                   0.00:  MAGUTM CALC DEP
 CMER.deg                74.00:  CENTRL MERIDIAN
 DEP .m                 915.49:  DEPTH
 VSC .                       0:  VS TO CLOSURE
 MAGU.                 1603544:  MAGUTM CHECKSUM
~Curve Information Block
#MNEM.UNIT                 API CODE     Curve Description
#---------               -----------    ---------------------------
 DEPT.M                 00 000 000 000:  Depth
 TVD .m                 00 000 000 000:  True Vertical Depth
 SROP.m/hr              00 000 000 000:  Smoothed Rate of Penetration
 SGRC.api               00 000 000 000:  Smoothed Gamma Ray Combined Borehole Corrected
 ABG .api               00 000 000 000:  Smoothed At Bit Gamma Ray Combined BC
 SFXE.hr                00 000 000 000:  Smoothed Formation Exposure Time
 SEXP.ohmm              00 000 000 000:  Smoothed BC Extra Shallow Phase Resistivity
 SEXA.ohmm              00 000 000 000:  Smoothed BC Extra Shallow Attenuation Resistivity
 SESP.ohmm              00 000 000 000:  Smoothed BC Shallow Phase Resistivity
 SESA.ohmm              00 000 000 000:  Smoothed BC Shallow Attenuation Resistivity
 SEMP.ohmm              00 000 000 000:  Smoothed BC Medium Phase Resistivity
 SEMA.ohmm              00 000 000 000:  Smoothed BC Medium Attenuation Resistivity
 SEDP.ohmm              00 000 000 000:  Smoothed BC Deep Phase Resistivity
 SEDA.ohmm              00 000 000 000:  Smoothed BC Deep Attenuation Resistivity
 ALCDTQ.g/cc            00 000 000 000:  ALD Comp Density T-Quad
 ALCDRQ.g/cc            00 000 000 000:  ALD Comp Density R-Quad
 ALCDBQ.g/cc            00 000 000 000:  ALD Comp Density B-Quad
 ALCDLQ.g/cc            00 000 000 000:  ALD Comp Density L-Quad
 HSI .in                00 000 000 000:  ALD Hole Size Indicator
 SBD2.g/cc              00 000 000 000:  Smoothed Bulk Density
 SCO2.g/cc              00 000 000 000:  Smoothed Standoff Correction
 TNPS.pu                00 000 000 000:  CTN Porosity Sandstone
 PAP .psig              00 000 000 000:  Smoothed PWD Annular Pressure
 ECD .ppg               00 000 000 000:  Smoothed Equivalent Circulating Density
 TEMP.degC              00 000 000 000:  Temperature
#Other Information

#
~A   DEPT      TVD    SROP    SGRC     ABG    SFXE    SEXP    SEXA    SESP    SESA    SEMP    SEMA    SEDP    SEDA   ALCDTQ  ALCDRQ  ALCDBQ  ALCDLQ    HSI    SBD2    SCO2     TNPS     PAP     ECD    TEMP   
# ...
   1627.3272 1415.41   14.99   70.51   70.82    1.66    4.44    5.14    4.36    5.36    4.31    5.23    4.56    5.83 -999.25 -999.25 -999.25 -999.25 -999.25 -999.25 -999.25  -999.25 -999.25 -999.25   64.09
   1627.4796 1415.54   13.94   61.16   64.22    1.66    4.41    5.06    4.26    5.23    4.23    5.12    4.45    5.87 -999.25 -999.25 -999.25 -999.25 -999.25 -999.25 -999.25  -999.25 -999.25 -999.25   64.09
   1627.6320 1415.67   13.62   73.87   65.98    1.66    4.14    5.12    3.94    5.31    3.82    5.36    4.14    6.34 -999.25 -999.25 -999.25 -999.25 -999.25 -999.25 -999.25  -999.25 -999.25 -999.25   64.09
   1627.7844 1415.81   14.83   80.51   70.14    1.69    4.17    5.46    4.12    5.75    4.16    5.75    4.55    6.28 -999.25 -999.25 -999.25 -999.25 -999.25 -999.25 -999.25  -999.25 -999.25 -999.25   64.09
   1627.9368 1415.94   15.30   77.58   69.96    1.70    4.22    5.55    4.18    5.86    4.25    5.83    4.63    6.30 -999.25 -999.25 -999.25 -999.25 -999.25 -999.25 -999.25  -999.25 -999.25 -999.25   64.09
   1628.0892 1416.07   15.36   68.30   70.47    1.73    4.73    6.10    4.68    6.43    4.69    6.24    5.08    6.81 -999.25 -999.25 -999.25 -999.25 -999.25 -999.25 -999.25  -999.25 -999.25 -999.25   64.09
   1628.2416 1416.20   15.46   70.12   66.76    1.74    5.64    6.51    5.48    6.62    5.47    6.33    5.77    7.05 -999.25 -999.25 -999.25 -999.25 -999.25 -999.25 -999.25  -999.25 -999.25 -999.25   64.09
   1628.3940 1416.34   15.74   67.81   66.45    1.74    6.49    6.66    6.10    6.73    5.96    6.33    6.02    7.12 -999.25 -999.25 -999.25 -999.25 -999.25 -999.25 -999.25  -999.25 -999.25 -999.25   64.09
   1628.5464 1416.47   15.65   59.89   60.86    1.74    6.98    6.87    6.47    7.08    6.11    6.43    6.09    6.56 -999.25 -999.25 -999.25 -999.25 -999.25 -999.25 -999.25  -999.25 -999.25 -999.25   64.09
   1628.6988 1416.60   15.54   62.76   61.33    1.74    6.90    7.03    6.43    7.33    5.99    6.66    5.98    6.79 -999.25 -999.25 -999.25 -999.25 -999.25 -999.25 -999.25  -999.25 -999.25 -999.25   64.09
   1628.8512 1416.74   15.70   71.22   61.33    1.74    6.46    7.21    6.18    7.78    5.76    6.93    5.83    7.45 -999.25 -999.25 -999.25 -999.25 -999.25 -999.25 -999.25  -999.25 -999.25 -999.25   64.09
   1629.0036 1416.87   15.72   76.04   64.74    1.74    5.89    8.08    5.84    8.02    5.59    7.49    5.82    7.46 -999.25 -999.25 -999.25 -999.25 -999.25 -999.25 -999.25  -999.25 -999.25 -999.25   64.09
   1629.1560 1417.00   15.95   75.77   64.82    1.74    5.56    8.15    5.61    8.31    5.67    8.14    6.09    8.36 -999.25 -999.25 -999.25 -999.25 -999.25 -999.25 -999.25  -999.25 -999.25 -999.25   64.09
   1629.3084 1417.14   15.74   73.17   65.17    1.74    5.66    8.58    5.79    8.93    6.06    8.66    6.75    8.83 -999.25 -999.25 -999.25 -999.25 -999.25 -999.25 -999.25  -999.25 -999.25 -999.25   64.09
   1629.4608 1417.27   15.42   71.33   67.77    1.74    5.93    9.16    5.99    9.38    6.30    9.38    7.22    9.81 -999.25 -999.25 -999.25 -999.25 -999.25 -999.25 -999.25  -999.25 -999.25 -999.25   64.09
   1629.6132 1417.40   15.52   79.55   71.86    1.74    6.82    9.48    6.90   10.24    7.28   10.19    8.38   10.20 -999.25 -999.25 -999.25 -999.25 -999.25 -999.25 -999.25  -999.25 -999.25 -999.25   64.09
   1629.7656 1417.53   15.44   67.78   65.58    1.74    8.79    9.65    8.65   10.69    9.06   10.43    9.95   10.56 -999.25 -999.25 -999.25 -999.25 -999.25 -999.25 -999.25  -999.25 -999.25 -999.25   64.09
   1629.9180 1417.67   15.54   63.30   56.20    1.74   11.88   10.56   10.84   11.04   10.69   10.48   10.93   10.95 -999.25 -999.25 -999.25 -999.25 -999.25 -999.25 -999.25  -999.25 -999.25 -999.25   64.09
   1630.0704 1417.80   15.76   60.46   56.03    1.74   14.62   11.38   12.69   12.01   11.46   10.66   11.08   10.37 -999.25 -999.25 -999.25 -999.25 -999.25 -999.25 -999.25  -999.25 -999.25 -999.25   64.09
   1630.2228 1417.93   15.77   59.31   52.96    1.74   15.54   12.28   13.77   12.60   11.72   11.03   11.09   11.00 -999.25 -999.25 -999.25 -999.25 -999.25 -999.25 -999.25  -999.25 -999.25 -999.25   64.09
   1630.3752 1418.07   15.73   60.53   52.94    1.75   14.46   11.89   13.35   12.72   11.56   11.35   10.69   11.37 -999.25 -999.25 -999.25 -999.25 -999.25 -999.25 -999.25  -999.25 -999.25 -999.25   64.09
   1630.5276 1418.20   15.20   62.65   58.81    1.75   13.23   12.25   12.72   13.02   11.49   11.51   10.42   10.83 -999.25 -999.25 -999.25 -999.25 -999.25 -999.25 -999.25  -999.25 -999.25 -999.25   64.09
   1630.6800 1418.33   14.47   63.46   61.09    1.75   12.42   12.13   12.23   12.85   11.47   11.28   10.32   11.27 -999.25 -999.25 -999.25 -999.25 -999.25 -999.25 -999.25  -999.25 -999.25 -999.25   64.09
   1630.8324 1418.46   14.31   66.33   61.01    1.74   11.24   12.34   11.21   12.62   10.70   11.16    9.91   11.15 -999.25 -999.25 -999.25 -999.25 -999.25 -999.25 -999.25  -999.25 -999.25 -999.25   64.09
   1630.9848 1418.62   13.21   67.72   63.85    1.74   10.00   11.47    9.86   11.93    9.70   10.79    9.35   11.09 -999.25 -999.25 -999.25 -999.25 -999.25 -999.25 -999.25  -999.25 -999.25 -999.25   64.09
   1631.1372 1418.71   10.50   65.49   65.93    1.74    8.86   10.37    8.72   10.73    8.75   10.18    8.69   10.37 -999.25 -999.25 -999.25 -999.25 -999.25 -999.25 -999.25  -999.25 -999.25 -999.25   64.09
   1631.2896 1418.86    9.78   70.75   60.93    1.80    7.88    9.33    7.84   10.17    7.95    9.90    8.15    9.71 -999.25 -999.25 -999.25 -999.25 -999.25 -999.25 -999.25  -999.25 -999.25 -999.25   64.09
   1631.4420 1419.08    8.41   73.91   62.49    1.86    6.71    8.72    6.74    9.49    6.91    9.54    7.48    9.75 -999.25 -999.25 -999.25 -999.25 -999.25 -999.25 -999.25  -999.25 -999.25 -999.25   64.09
   1631.5944 1419.15    4.36   72.22   64.37    1.86    6.16    8.24    6.21    9.16    6.43    9.28    7.15   10.80 -999.25 -999.25 -999.25 -999.25 -999.25 -999.25 -999.25  -999.25 -999.25 -999.25   64.09
   1631.7468 1419.18    3.15   79.68   70.20    1.04    5.99    7.91    6.03    8.83    6.35    8.91    7.16   10.07 -999.25 -999.25 -999.25 -999.25 -999.25 -999.25 -999.25  -999.25 -999.25 -999.25   64.09
   1631.8992 1419.39    4.43   70.02   71.09    1.04    5.80    7.57    5.80    8.52    6.07    8.74    6.92   10.61 -999.25 -999.25 -999.25 -999.25 -999.25 -999.25 -999.25  -999.25 -999.25 -999.25   64.09
   1632.0516 1419.53   14.00   68.89   72.32    1.04    5.82    7.71    5.82    8.41    5.94    8.72    6.72   10.92 -999.25 -999.25 -999.25 -999.25 -999.25 -999.25 -999.25  -999.25 -999.25 -999.25   64.09
   1632.2040 1419.68   14.44   75.00   71.50    1.03    6.16    7.66    6.13    8.47    6.23    8.44    6.96   10.40 -999.25 -999.25 -999.25 -999.25 -999.25 -999.25 -999.25  -999.25 -999.25 -999.25   64.09
   1632.3564 1419.78   12.16   69.64   70.25    1.03    6.51    7.68    6.36    8.35    6.34    8.26    6.97   10.67 -999.25 -999.25 -999.25 -999.25 -999.25 -999.25 -999.25  -999.25 -999.25 -999.25   64.09
   1632.5088 1419.92   11.22   65.81   66.09    1.03    6.76    8.06    6.49    8.46    6.36    7.98    6.91   10.01 -999.25 -999.25 -999.25 -999.25 -999.25 -999.25 -999.25  -999.25 -999.25 -999.25   64.09
   1632.6612 1420.06   13.96   71.19   66.64    1.03    6.61    8.14    6.44    8.43    6.25    8.07    6.69    9.26 -999.25 -999.25 -999.25 -999.25 -999.25 -999.25 -999.25  -999.25 -999.25 -999.25   64.09
   1632.8136 1420.19   14.75   66.23   64.57    1.04    6.58    8.05    6.53    8.55    6.34    8.13    6.70    9.16 -999.25 -999.25 -999.25 -999.25 -999.25 -999.25 -999.25  -999.25 -999.25 -999.25   64.09
   1632.9660 1420.32   14.50   68.31   62.06    1.04    6.67    7.97    6.68    8.50    6.58    8.24    6.90    9.44 -999.25 -999.25 -999.25 -999.25 -999.25 -999.25 -999.25  -999.25 -999.25 -999.25   64.09
   1633.1184 1420.46   14.68   70.89   61.76 -999.25 -999.25 -999.25 -999.25 -999.25 -999.25 -999.25 -999.25 -999.25 -999.25 -999.25 -999.25 -999.25 -999.25 -999.25 -999.25  -999.25 -999.25 -999.25   64.09
