~Version Information
 VERS.                  2.0:   CWLS log ASCII Standard -VERSION 2.0
 WRAP.                   NO:   One line per depth step
~Well Information Block
#MNEM.UNIT     VALUE/NAME     DESCRIPTION
#---------     -----------    ---------------------------
 STRT.M               914.0952: START DEPTH
 STOP.M              1646.9868: STOP DEPTH
 STEP.M                 0.1524: STEP DEPTH
 NULL.                 -999.25: NULL VALUE
 WTYP.                Deviated:  WELL TYPE
 DFWT.                        :  DIST FWL TEXT
 DFST.                        :  DIST FSL TEXT
 DMF .             Drill Floor:  DRILL MEAS FROM
 NREF.                    Grid:  NORTH REFERENCE
 HPTY.       Minimum Curvature:  HOLE POS TYPE
 DMOD.             Drill Model:  DRILL MOD DESC
 SVYD.                  Survey:  SURVEY DESC
 ILTD.               Lithology:  INTERP LTH DESC
 FTOP.          Formation Tops:  FORM TOPS DESC
 SON .        IN-XX-0907787982:  JOB NUMBER
 PDAT.          Mean Sea Level:  PERMANENT DATUM
 UWI .                      NA:  UNIQUE WELL IDENTIFIER
 API .                      NA:  API NUMBER
 MWDS.                  Taloja:  MWD SHOP
 JOBN.        IN-XX-0907787982:  JOB TICKET NUMB
 RIG .                   VG_9:  RIG NAME
 DOE .                      NA:  DOE NUMBER
 CNTY.                       .:  COUNTY NAME
 DCON.         Sperry Drilling:  DIRECTNL CONTR
 UNIT.                11175629:  LOGGING EQUIPMENT ID
 GCDE.     Generic Lat/Long's, Degrees, -180 ==> +180:  GEO COORD DESC
 CCDE.     Indian 1975 (Zone 2A) Thailand CM 74:  CART COORD DESC
 GGSY.                      LL:  GEO GRID SYS
 CGSY.          SS INDIAN-CM74:  CART GRID SYS
 GREF.     Ellipsoid World Geodetic System :  GEO REFERENCE
 MMDL.            bggm2021.dat:  MAGNETIC MODEL
 MMDD.          05 April, 2022:  MAG DATA DATE
 MDS .              Win MagUTM:  MAG DATA SOURCE
 LLGR.      Latitude/Longitude:  LLGROUP
 XYGR.     Asian Coordinate Systems:  XYGROUP
 LOC .                        :  LOCATION
 TVDS.m                  64.55:  TVDSS CORRECTN
 LATI.deg                25.30:  LATITUDE
 LONG.deg                71.77:  LONGITUDE
 WHNS.m                   0.00:  WELL HEAD N/S
 WHEW.m                   0.00:  WELL HEAD E/W
 UTMX.m             2051879.80:  UTM X
 UTMY.m              878801.73:  UTM Y
 DFWL.m                   0.00:  DISTANCE FWL
 DFSL.m                   0.00:  DISTANCE FSL
 SDEP.m                   0.00:  START DEPTH
 TDD .m                   0.00:  TOTAL DEPTH (DRILLER)
 VSDR.deg               350.40:  VERT SEC DIRECT
 GVFD.g                   1.00:  GRAVITY FIELD
 MFLD.nT              45311.10:  MAGNETIC FIELD
 MDIP.deg                40.06:  MAGNETIC DIP
 MDEC.deg                 1.01:  MAGNETIC DECL
 GRDC.deg                -0.98:  GRID CORRECTION
 AZTC.deg                 1.99:  AZM TOTAL CORR
 EPD .m                   0.00:  ELEVATION
 EGL .m                  57.80:  GROUND ELEVATION
 WDMS.m                   0.00:  WD ELEV
 APD .m                  64.55:  DEPTH ABOVE PD
 AGAP.m                   6.75:  AIR GAP
 MMDE.m                   0.00:  MAGUTM CALC DEP
 CMER.deg                74.00:  CENTRL MERIDIAN
 DEP .m                 915.49:  DEPTH
 VSC .                       0:  VS TO CLOSURE
 MAGU.                 1603544:  MAGUTM CHECKSUM
~Curve Information Block
#MNEM.UNIT                 API CODE     Curve Description
#---------               -----------    ---------------------------
 DEPT.M                 00 000 000 000:  Depth
 TVD .m                 00 000 000 000:  True Vertical Depth
 SROP.m/hr              00 000 000 000:  Smoothed Rate of Penetration
 SGRC.api               00 000 000 000:  Smoothed Gamma Ray Combined Borehole Corrected
 ABG .api               00 000 000 000:  Smoothed At Bit Gamma Ray Combined BC
 SFXE.hr                00 000 000 000:  Smoothed Formation Exposure Time
 SEXP.ohmm              00 000 000 000:  Smoothed BC Extra Shallow Phase Resistivity
 SEXA.ohmm              00 000 000 000:  Smoothed BC Extra Shallow Attenuation Resistivity
 SESP.ohmm              00 000 000 000:  Smoothed BC Shallow Phase Resistivity
 SESA.ohmm              00 000 000 000:  Smoothed BC Shallow Attenuation Resistivity
 SEMP.ohmm              00 000 000 000:  Smoothed BC Medium Phase Resistivity
 SEMA.ohmm              00 000 000 000:  Smoothed BC Medium Attenuation Resistivity
 SEDP.ohmm              00 000 000 000:  Smoothed BC Deep Phase Resistivity
 SEDA.ohmm              00 000 000 000:  Smoothed BC Deep Attenuation Resistivity
 ALCDTQ.g/cc            00 000 000 000:  ALD Comp Density T-Quad
 ALCDRQ.g/cc            00 000 000 000:  ALD Comp Density R-Quad
 ALCDBQ.g/cc            00 000 000 000:  ALD Comp Density B-Quad
 ALCDLQ.g/cc            00 000 000 000:  ALD Comp Density L-Quad
 HSI .in                00 000 000 000:  ALD Hole Size Indicator
 SBD2.g/cc              00 000 000 000:  Smoothed Bulk Density
 SCO2.g/cc              00 000 000 000:  Smoothed Standoff Correction
 TNPS.pu                00 000 000 000:  CTN Porosity Sandstone
 PAP .psig              00 000 000 000:  Smoothed PWD Annular Pressure
 ECD .ppg               00 000 000 000:  Smoothed Equivalent Circulating Density
 TEMP.degC              00 000 000 000:  Temperature
#Other Information

#
~A   DEPT      TVD    SROP    SGRC     ABG    SFXE    SEXP    SEXA    SESP    SESA    SEMP    SEMA    SEDP    SEDA   ALCDTQ  ALCDRQ  ALCDBQ  ALCDLQ    HSI    SBD2    SCO2     TNPS     PAP     ECD    TEMP   
# ...
    973.5312  851.30 -999.25   59.30   65.73  127.25    5.89    6.33    5.79    6.26    5.52    5.97    5.54    6.57    1.65    2.05    2.25    1.94   12.62    2.25    0.03    26.77 1714.76   11.81   51.62
    973.6836  851.43 -999.25   47.08   62.11  127.26    6.29    6.04    5.93    6.33    5.70    5.84    5.56    6.10    1.65    2.05    2.24    1.93   12.24    2.22    0.04    26.53 1709.61   11.77   47.96
    973.8360  851.56 -999.25   42.79   56.87  127.26    6.55    5.83    6.05    6.33    5.81    5.72    5.58    5.80    1.65    2.00    2.18    1.92   11.87    2.19    0.05    30.73 1713.65   11.80   47.00
    973.9884  851.68 -999.25   42.71   53.59  127.26    5.97    5.55    5.75    5.82    5.36    5.39    5.23    5.59    1.63    1.92    2.22    1.90   11.49    2.19    0.06    34.32 1718.62   11.83   47.00
    974.1408  851.81 -999.25   46.12   38.87  127.27    4.29    4.48    4.07    4.91    3.91    5.00    4.10    5.87    1.67    2.07    2.24    1.94   10.24    2.20    0.03    42.36 1718.03   11.82   47.00
    974.2932  851.94 -999.25   53.81   31.69  127.27    4.93    4.73    4.57    5.19    4.34    5.03    4.41    5.66    1.69    2.11    2.23    1.95    9.82    2.20    0.02    59.41 1708.99   11.76   47.00
    974.4456  852.07 -999.25   54.22   39.34  127.28    4.68    4.62    4.20    5.20    4.22    5.01    4.34    5.33    1.72    2.12    2.21    1.94    9.98    2.19    0.03    58.87 1703.46   11.72   47.22
    974.5980  852.20 -999.25   58.48   51.32  127.28    4.01    4.72    4.19    4.91    4.10    5.17    4.47    5.64    1.73    2.13    2.22    1.94   10.15    2.21    0.04    52.94 1710.62   11.77   47.85
    974.7504  852.33 -999.25   64.52   58.86  127.28    4.03    4.60    4.06    4.90    4.09    5.12    4.44    5.81    1.73    2.17    2.24    1.95   10.31    2.23    0.05    55.55 1707.17   11.74   49.21
    974.9028  852.46 -999.25   66.62   68.21  127.29    4.08    4.50    3.95    4.91    4.08    5.06    4.42    5.99    1.74    2.21    2.26    1.96   10.48    2.25    0.06    49.34 1708.82   11.75   50.54
    975.0552  852.58 -999.25   65.69   63.98  127.29    4.46    4.93    4.20    5.26    4.28    5.16    4.65    5.91    1.76    2.24    2.28    1.96   10.48    2.27    0.06    45.11 1712.47   11.77   52.14
    975.2076  852.71 -999.25   70.36   61.75  127.30    4.52    5.29    4.45    5.33    4.43    5.37    4.76    5.35    1.77    2.28    2.29    1.98   10.48    2.29    0.06    53.39 1708.15   11.74   47.85
    975.3600  852.84 -999.25   72.06   65.32  127.30    4.29    4.72    4.21    4.68    4.05    4.85    4.45    5.27    1.77    2.26    2.31    2.02   10.31    2.30    0.05    48.91 1713.13   11.77   47.85
    975.5124  852.97 -999.25   71.35   65.00  127.30    4.42    4.72    4.17    4.90    4.09    4.81    4.28    5.36    1.81    2.27    2.33    2.12   10.14    2.33    0.04    42.93 1712.46   11.77   51.09
    975.6648  853.10 -999.25   70.92   64.72  127.31    4.48    4.76    4.16    4.94    4.07    4.71    4.27    5.33    1.85    2.26    2.30    2.14    9.96    2.28    0.03    46.19 1715.69   11.79   51.58
    975.8172  853.22 -999.25   55.38   68.74  127.31    4.40    4.75    4.20    4.89    4.08    4.72    4.25    5.21    1.87    2.25    2.28    2.15    9.96    2.27    0.03    54.11 1711.70   11.76   47.85
    975.9696  853.36 -999.25   54.31   66.27  127.32    4.26    4.72    4.27    4.78    4.09    4.78    4.23    5.03    1.88    2.24    2.29    2.15    9.96    2.28    0.03    52.63 1707.32   11.73   47.85
    976.1220  853.48 -999.25   62.71   66.53  127.32    4.35    4.48    4.12    4.82    4.14    4.46    4.19    4.94    1.93    2.28    2.30    2.17    9.91    2.29    0.03    45.62 1717.39   11.79   47.85
    976.2744  853.61 -999.25   54.29   66.74  127.32    4.26    4.46    4.04    4.79    4.03    4.46    4.13    5.00    1.95    2.29    2.29    2.19    9.91    2.30    0.03    50.06 1718.38   11.80   47.85
    976.4268  853.73 -999.25   62.50   57.68  127.33    4.71    4.85    4.53    5.22    4.36    4.89    4.52    5.43    1.98    2.30    2.28    2.22    9.91    2.31    0.03    55.13 1717.96   11.80   47.85
    976.5792  853.86 -999.25   68.45   62.36  127.33    5.12    5.09    4.91    5.45    4.63    5.16    4.67    5.40    1.98    2.31    2.29    2.23    9.84    2.32    0.03    49.30 1721.07   11.81   51.41
    976.7316  853.99 -999.25   57.94   65.04  127.34    4.63    4.57    4.28    4.96    4.15    5.01    4.34    5.74    1.97    2.27    2.26    2.23    9.84    2.31    0.03    45.80 1716.45   11.78   49.38
    976.8840  854.12 -999.25   69.46   61.68  127.34    3.92    4.02    3.74    4.22    3.66    4.33    3.87    4.74    1.95    2.24    2.24    2.22    9.84    2.28    0.03    55.10 1720.38   11.81   47.85
    977.0364  854.25 -999.25   58.86   57.79  127.34    3.56    4.01    3.48    4.10    3.39    4.20    3.66    4.78    1.94    2.18    2.23    2.16    9.94    2.21    0.04    54.13 1718.71   11.79   47.85
    977.1888  854.38 -999.25   64.92   59.86  127.35    3.39    3.98    3.40    4.12    3.32    4.39    3.66    4.60    1.89    2.17    2.18    2.12   10.04    2.18    0.06    43.60 1719.98   11.80   47.85
    977.3412  854.51 -999.25   69.65   69.80  127.35    3.43    4.05    3.39    4.32    3.39    4.52    3.77    4.87    1.90    2.18    2.19    2.10   10.04    2.18    0.06    42.93 1720.65   11.80   47.85
    977.4936  854.64 -999.25   56.45   59.60  127.35    3.56    4.17    3.41    4.62    3.53    4.65    3.95    5.36    1.89    2.19    2.21    2.05   10.08    2.20    0.03    44.63 1712.96   11.75   47.85
    977.6460  854.76 -999.25   52.28   59.01  127.36    4.14    4.67    4.14    4.81    4.18    4.92    4.48    5.00    1.81    2.18    2.28    2.02   10.12    2.24   -0.00    35.56 1716.70   11.77   47.85
    977.7984  854.90 -999.25   51.48   61.73  127.37    4.78    4.89    4.58    4.85    4.50    4.79    4.67    4.75    1.80    2.23    2.25    2.04   10.12    2.27   -0.00    31.09 1717.72   11.78   49.24
    977.9508  855.02 -999.25   55.93   58.36  127.37    5.27    4.92    4.85    4.93    4.67    4.68    4.76    4.82    1.84    2.22    2.23    2.04   10.19    2.24    0.01    34.60 1718.16   11.78   54.54
    978.1032  855.15 -999.25   60.67   51.90  127.37    5.89    5.72    5.46    5.73    5.17    5.18    5.14    5.61    1.84    2.19    2.17    1.98   10.26    2.21    0.02    34.01 1723.25   11.81   50.73
    978.2556  855.28 -999.25   55.46   51.55  127.37    5.77    6.36    5.76    6.00    5.30    5.64    5.19    5.68    1.81    2.16    2.13    1.93   10.33    2.20    0.03    36.65 1770.08   12.13   51.12
    978.4080  855.40 -999.25   61.74   63.48  127.38    5.24    4.80    5.04    5.01    4.66    4.94    4.59    4.97    1.79    2.12    2.13    1.91   10.33    2.14    0.03    35.89 1751.42   12.00   47.85
    978.5604  855.53 -999.25   69.23   63.86  127.38    5.13    4.74    4.82    5.13    4.65    4.97    4.57    5.20    1.80    2.10    2.10    1.86   10.50    2.09    0.03    36.99 1722.29   11.80   47.85
    978.7128  855.66 -999.25   64.11   64.21  127.39    4.84    4.96    4.62    5.27    4.65    5.17    4.64    6.09    1.76    2.09    2.11    1.83   10.68    2.07    0.03    40.35 1721.21   11.79   47.85
    978.8652  855.79 -999.25   55.26   62.41  127.40    4.53    5.25    4.62    5.39    4.59    5.60    4.87    6.06    1.76    2.09    2.11    1.83   10.71    2.07    0.03    41.51 1727.13   11.83   47.85
    979.0176  855.92 -999.25   48.83   61.84  127.54    4.95    6.52    4.98    7.03    5.24    7.33    5.76    7.39    1.76    2.08    2.13    1.83   11.25    2.12    0.06    43.07 1727.56   11.83   47.85
    979.1700  856.04 -999.25   45.53   55.63  127.63    4.90    6.97    5.02    7.54    5.38    7.92    6.01    8.24    1.76    2.14    2.19    1.87   11.25    2.19    0.08    28.86 1726.82   11.82   47.85
    979.3224  856.17 -999.25   40.79   44.65  127.52    5.50    5.32    5.25    5.85    5.29    5.92    5.56    5.82    1.79    2.17    2.22    1.88   11.23    2.21    0.09    28.46 1732.21   11.86   47.85
