~Version Information
 VERS.                  2.0:   CWLS log ASCII Standard -VERSION 2.0
 WRAP.                   NO:   One line per depth step
~Well Information Block
#MNEM.UNIT     VALUE/NAME     DESCRIPTION
#---------     -----------    ---------------------------
 STRT.M               914.0952: START DEPTH
 STOP.M              1646.9868: STOP DEPTH
 STEP.M                 0.1524: STEP DEPTH
 NULL.                 -999.25: NULL VALUE
 WTYP.                Deviated:  WELL TYPE
 DFWT.                        :  DIST FWL TEXT
 DFST.                        :  DIST FSL TEXT
 DMF .             Drill Floor:  DRILL MEAS FROM
 NREF.                    Grid:  NORTH REFERENCE
 HPTY.       Minimum Curvature:  HOLE POS TYPE
 DMOD.             Drill Model:  DRILL MOD DESC
 SVYD.                  Survey:  SURVEY DESC
 ILTD.               Lithology:  INTERP LTH DESC
 FTOP.          Formation Tops:  FORM TOPS DESC
 SON .        IN-XX-0907787982:  JOB NUMBER
 PDAT.          Mean Sea Level:  PERMANENT DATUM
 UWI .                      NA:  UNIQUE WELL IDENTIFIER
 API .                      NA:  API NUMBER
 MWDS.                  Taloja:  MWD SHOP
 JOBN.        IN-XX-0907787982:  JOB TICKET NUMB
 RIG .                   VG_9:  RIG NAME
 DOE .                      NA:  DOE NUMBER
 CNTY.                       .:  COUNTY NAME
 DCON.         Sperry Drilling:  DIRECTNL CONTR
 UNIT.                11175629:  LOGGING EQUIPMENT ID
 GCDE.     Generic Lat/Long's, Degrees, -180 ==> +180:  GEO COORD DESC
 CCDE.     Indian 1975 (Zone 2A) Thailand CM 74:  CART COORD DESC
 GGSY.                      LL:  GEO GRID SYS
 CGSY.          SS INDIAN-CM74:  CART GRID SYS
 GREF.     Ellipsoid World Geodetic System :  GEO REFERENCE
 MMDL.            bggm2021.dat:  MAGNETIC MODEL
 MMDD.          05 April, 2022:  MAG DATA DATE
 MDS .              Win MagUTM:  MAG DATA SOURCE
 LLGR.      Latitude/Longitude:  LLGROUP
 XYGR.     Asian Coordinate Systems:  XYGROUP
 LOC .                        :  LOCATION
 TVDS.m                  64.55:  TVDSS CORRECTN
 LATI.deg                25.30:  LATITUDE
 LONG.deg                71.77:  LONGITUDE
 WHNS.m                   0.00:  WELL HEAD N/S
 WHEW.m                   0.00:  WELL HEAD E/W
 UTMX.m             2051879.80:  UTM X
 UTMY.m              878801.73:  UTM Y
 DFWL.m                   0.00:  DISTANCE FWL
 DFSL.m                   0.00:  DISTANCE FSL
 SDEP.m                   0.00:  START DEPTH
 TDD .m                   0.00:  TOTAL DEPTH (DRILLER)
 VSDR.deg               350.40:  VERT SEC DIRECT
 GVFD.g                   1.00:  GRAVITY FIELD
 MFLD.nT              45311.10:  MAGNETIC FIELD
 MDIP.deg                40.06:  MAGNETIC DIP
 MDEC.deg                 1.01:  MAGNETIC DECL
 GRDC.deg                -0.98:  GRID CORRECTION
 AZTC.deg                 1.99:  AZM TOTAL CORR
 EPD .m                   0.00:  ELEVATION
 EGL .m                  57.80:  GROUND ELEVATION
 WDMS.m                   0.00:  WD ELEV
 APD .m                  64.55:  DEPTH ABOVE PD
 AGAP.m                   6.75:  AIR GAP
 MMDE.m                   0.00:  MAGUTM CALC DEP
 CMER.deg                74.00:  CENTRL MERIDIAN
 DEP .m                 915.49:  DEPTH
 VSC .                       0:  VS TO CLOSURE
 MAGU.                 1603544:  MAGUTM CHECKSUM
~Curve Information Block
#MNEM.UNIT                 API CODE     Curve Description
#---------               -----------    ---------------------------
 DEPT.M                 00 000 000 000:  Depth
 TVD .m                 00 000 000 000:  True Vertical Depth
 SROP.m/hr              00 000 000 000:  Smoothed Rate of Penetration
 SGRC.api               00 000 000 000:  Smoothed Gamma Ray Combined Borehole Corrected
 ABG .api               00 000 000 000:  Smoothed At Bit Gamma Ray Combined BC
 SFXE.hr                00 000 000 000:  Smoothed Formation Exposure Time
 SEXP.ohmm              00 000 000 000:  Smoothed BC Extra Shallow Phase Resistivity
 SEXA.ohmm              00 000 000 000:  Smoothed BC Extra Shallow Attenuation Resistivity
 SESP.ohmm              00 000 000 000:  Smoothed BC Shallow Phase Resistivity
 SESA.ohmm              00 000 000 000:  Smoothed BC Shallow Attenuation Resistivity
 SEMP.ohmm              00 000 000 000:  Smoothed BC Medium Phase Resistivity
 SEMA.ohmm              00 000 000 000:  Smoothed BC Medium Attenuation Resistivity
 SEDP.ohmm              00 000 000 000:  Smoothed BC Deep Phase Resistivity
 SEDA.ohmm              00 000 000 000:  Smoothed BC Deep Attenuation Resistivity
 ALCDTQ.g/cc            00 000 000 000:  ALD Comp Density T-Quad
 ALCDRQ.g/cc            00 000 000 000:  ALD Comp Density R-Quad
 ALCDBQ.g/cc            00 000 000 000:  ALD Comp Density B-Quad
 ALCDLQ.g/cc            00 000 000 000:  ALD Comp Density L-Quad
 HSI .in                00 000 000 000:  ALD Hole Size Indicator
 SBD2.g/cc              00 000 000 000:  Smoothed Bulk Density
 SCO2.g/cc              00 000 000 000:  Smoothed Standoff Correction
 TNPS.pu                00 000 000 000:  CTN Porosity Sandstone
 PAP .psig              00 000 000 000:  Smoothed PWD Annular Pressure
 ECD .ppg               00 000 000 000:  Smoothed Equivalent Circulating Density
 TEMP.degC              00 000 000 000:  Temperature
#Other Information

#
~A   DEPT      TVD    SROP    SGRC     ABG    SFXE    SEXP    SEXA    SESP    SESA    SEMP    SEMA    SEDP    SEDA   ALCDTQ  ALCDRQ  ALCDBQ  ALCDLQ    HSI    SBD2    SCO2     TNPS     PAP     ECD    TEMP   
# ...
   1252.8804 1089.73   14.26   86.02   83.86    1.04    1.55    1.82    1.52    1.85    1.53    1.88    1.60    1.92    2.18    2.19    2.16    2.18    8.90    2.17    0.03    55.43 2244.76   12.07   53.83
   1253.0328 1089.86   14.47   86.76   82.94    1.04    1.58    1.89    1.53    1.94    1.50    2.02    1.62    2.02    2.17    2.20    2.17    2.17    8.91    2.17    0.03    54.92 2245.58   12.08   53.83
   1253.1852 1089.99   14.76   83.51   76.33    1.04    1.58    2.03    1.55    2.13    1.51    2.23    1.66    2.34    2.18    2.18    2.16    2.16    8.70    2.17    0.01    56.27 2245.82   12.08   53.83
   1253.3376 1090.13   14.51   72.62   75.89    1.04    1.69    2.31    1.65    2.49    1.66    2.70    1.86    2.68    2.18    2.13    2.08    2.16    8.54    2.17   -0.01    61.46 2245.99   12.08   53.83
   1253.4900 1090.25   13.11   54.38   53.91    1.05    2.03    2.75    2.04    2.92    2.07    3.45    2.33    3.03    2.12    1.88    1.72    2.01    8.54    2.15    0.06    66.58 2246.47   12.08   53.83
   1253.6424 1090.39   12.62   39.14   29.86    1.05    3.61    3.49    3.74    3.61    4.28    3.49    4.61    3.26    1.84    1.50    1.39    1.65    8.96    1.93    0.09    69.26 2247.06   12.08   53.83
   1253.7948 1090.53   14.01   28.43   20.38    1.05    5.70    4.95    5.30    4.54    5.68    4.04    5.59    3.65    1.42    1.27    1.26    1.33    9.39    1.46   -0.10    80.90 2247.25   12.08   53.83
   1253.9472 1090.65   13.84   16.73   15.00    1.05    7.40    6.87    6.61    5.68    6.26    4.69    5.90    3.85    1.25    1.25    1.25    1.24    9.39    1.26   -0.10   101.11 2247.50   12.08   53.83
   1254.0996 1090.79   14.23   12.11   13.31    1.06    8.51    9.16    7.59    7.06    6.96    5.32    6.35    3.89    1.26    1.25    1.26    1.24    9.29    1.25   -0.07    93.43 2248.06   12.08   53.83
   1254.2520 1090.92   15.55   13.81   14.36    1.06    8.93   11.34    8.27    8.77    7.60    6.11    6.73    4.30    1.25    1.25    1.27    1.24    9.28    1.25   -0.07    95.27 2248.46   12.08   53.83
   1254.4044 1091.05   15.40   16.12   13.65    1.06    8.97   12.18    8.69    9.80    8.20    6.64    7.01    4.32    1.24    1.27    1.27    1.26    9.29    1.26   -0.07   100.44 2249.26   12.08   53.83
   1254.5568 1091.18   15.17   17.06   15.95    1.10    8.63   10.91    8.45    9.28    8.11    6.51    6.59    4.34    1.26    1.28    1.28    1.27    9.29    1.26   -0.07   106.80 2249.33   12.08   53.83
   1254.7092 1091.32   15.11   23.75   22.97    1.22    8.54   10.33    8.33    9.00    8.01    6.41    6.46    4.30    1.26    1.31    1.36    1.29    8.60    1.35   -0.04    86.58 2249.34   12.08   53.83
   1254.8616 1091.44   15.05   35.23   36.46    1.53    7.10    7.05    6.79    6.66    6.59    5.25    5.29    4.03    1.32    1.49    1.61    1.39    8.47    1.58   -0.04    82.95 2250.04   12.08   53.83
   1255.0140 1091.58   15.20   48.97   48.27    1.53    5.22    5.01    5.05    5.08    4.97    4.31    4.33    3.53    1.51    1.74    1.81    1.59    8.83    1.84   -0.04    79.73 2250.58   12.09   53.83
   1255.1664 1091.71   15.17   63.15   65.37    1.53    3.46    3.55    3.50    3.63    3.56    3.52    3.44    3.23    1.77    1.93    1.96    1.80    9.18    1.96   -0.01    69.12 2250.85   12.09   53.83
   1255.3188 1091.85   14.53   69.77   72.00    1.53    2.32    2.80    2.44    2.96    2.49    3.01    2.58    3.01    1.95    2.03    2.02    1.96    9.53    2.03    0.03    59.04 2251.18   12.09   53.83
   1255.4712 1091.97   14.29   73.37   73.57    1.53    1.71    2.47    1.76    2.78    1.75    2.92    1.93    3.00    2.02    2.06    2.02    2.04    9.43    2.06    0.03    60.57 2251.71   12.09   53.83
   1255.6236 1092.11   14.73   69.13   69.22    1.53    1.59    2.25    1.64    2.56    1.71    2.88    2.02    2.96    2.07    2.01    1.99    2.03    9.25    2.05    0.03    61.14 2251.90   12.09   53.83
   1255.7760 1092.24   15.03   73.22   67.78    1.53    1.65    2.12    1.67    2.37    1.80    2.78    2.10    2.88    1.99    1.95    1.93    1.97    9.43    1.98    0.03    60.92 2252.64   12.09   53.83
   1255.9284 1092.37   14.84   72.01   67.21    1.53    1.84    2.07    1.81    2.16    1.91    2.52    2.25    2.54    1.95    1.92    1.91    1.93    9.48    1.93    0.03    62.41 2253.45   12.09   53.83
   1256.0808 1092.50   14.30   74.37   72.52    1.53    1.91    1.99    1.85    1.99    1.89    2.16    2.18    2.27    1.91    1.92    1.96    1.90    8.39    1.91   -0.01    66.72 2253.91   12.09   53.83
   1256.2332 1092.64   14.18   77.33   73.18    1.53    1.79    1.89    1.74    1.89    1.70    1.95    1.92    2.08    1.94    2.01    2.04    1.97    8.53    2.00   -0.01    62.69 2254.31   12.09   53.83
   1256.3856 1092.77   14.85   78.69   80.10    1.53    1.55    1.84    1.55    1.88    1.51    1.85    1.52    2.13    2.03    2.09    2.10    2.06    8.91    2.08   -0.01    58.97 2255.13   12.10   53.83
   1256.5380 1092.91   15.41   80.68   83.69    1.53    1.41    1.80    1.41    1.91    1.41    1.88    1.46    1.97    2.12    2.10    2.10    2.12    8.96    2.11    0.02    59.32 2254.44   12.09   53.83
   1256.6904 1093.03   15.18   80.55   74.68    1.53    1.42    1.80    1.39    1.98    1.42    2.03    1.53    2.01    2.10    2.09    2.12    2.12    8.97    2.11    0.03    58.76 2255.20   12.09   53.83
   1256.8428 1093.17   15.05   81.09   72.34    1.53    1.60    1.84    1.58    1.95    1.63    2.02    1.79    2.06    2.10    2.04    2.04    2.10    8.69    2.08    0.01    59.31 2256.08   12.10   53.83
   1256.9952 1093.30   15.39   79.80   71.63    1.53    1.73    2.00    1.71    2.06    1.70    2.15    1.86    2.08    2.05    1.98    1.94    2.00    8.42    2.04   -0.01    60.87 2256.20   12.10   53.83
   1257.1476 1093.43   15.30   81.62   75.39    1.53    1.90    2.17    1.92    2.23    1.89    2.29    1.99    2.21    1.94    1.93    1.89    1.91    8.41    1.93   -0.01    63.54 2256.49   12.10   53.83
   1257.3000 1093.56   15.13   80.02   74.82    1.53    2.20    2.34    2.22    2.31    2.26    2.31    2.18    2.22    1.89    1.91    1.90    1.89    8.55    1.90   -0.01    62.91 2256.80   12.10   53.83
   1257.4524 1093.70   15.09   76.04   72.84    1.53    2.57    2.37    2.57    2.28    2.69    2.14    2.60    1.98    1.89    1.85    1.84    1.91    8.90    1.91   -0.01    58.30 2257.18   12.10   53.83
   1257.6048 1093.82   14.96   81.96   80.00    1.53    2.52    2.32    2.44    2.24    2.46    2.06    2.36    1.89    1.89    1.82    1.83    1.89    8.90    1.89   -0.01    55.93 2257.59   12.10   53.83
   1257.7572 1093.96   14.94   86.34   85.25    1.53    2.17    2.16    2.12    2.12    1.99    2.03    1.94    1.81    1.87    1.85    1.93    1.88    8.93    1.89    0.01    56.82 2257.51   12.10   53.83
   1257.9096 1094.09   15.18   91.15   84.31    1.53    1.79    1.97    1.80    2.00    1.76    1.90    1.72    1.77    1.90    1.99    2.04    1.96    8.96    2.01    0.03    61.67 2257.12   12.09   53.83
   1258.0620 1094.22   15.21   90.54   82.05    1.53    1.53    1.82    1.55    1.90    1.59    1.81    1.60    1.74    2.02    2.09    2.11    2.06    8.96    2.08    0.03    58.87 2254.13   12.07   53.83
   1258.2144 1094.35   15.43   86.54   73.41    1.51    1.37    1.70    1.38    1.80    1.46    1.82    1.56    1.69    2.10    2.13    2.17    2.12    8.73    2.12    0.01    58.05 2245.51   12.03   53.83
   1258.3668 1094.54    8.82   79.76   64.16    1.51    1.30    1.65    1.36    1.77    1.44    1.86    1.57    1.71    2.17    2.17    2.20    2.20    8.58    2.18   -0.01    58.63 2242.94   12.01   53.83
   1258.5192 1094.58    6.10   80.03   72.09    1.46    1.38    1.58    1.42    1.68    1.57    1.74    1.66    1.65    2.26    2.19    2.19    2.26    9.50    2.26    0.06    54.14 2241.89   12.00   53.83
   1258.6716 1094.75    4.65   80.76   76.78    1.46    1.32    1.53    1.31    1.58    1.33    1.64    1.39    1.58    2.25    2.18    2.17    2.21    9.50    2.23    0.06    54.18 2243.67   12.01   53.83
