~Version Information
 VERS.                  2.0:   CWLS log ASCII Standard -VERSION 2.0
 WRAP.                   NO:   One line per depth step
~Well Information Block
#MNEM.UNIT     VALUE/NAME     DESCRIPTION
#---------     -----------    ---------------------------
 STRT.M               914.0952: START DEPTH
 STOP.M              1646.9868: STOP DEPTH
 STEP.M                 0.1524: STEP DEPTH
 NULL.                 -999.25: NULL VALUE
 WTYP.                Deviated:  WELL TYPE
 DFWT.                        :  DIST FWL TEXT
 DFST.                        :  DIST FSL TEXT
 DMF .             Drill Floor:  DRILL MEAS FROM
 NREF.                    Grid:  NORTH REFERENCE
 HPTY.       Minimum Curvature:  HOLE POS TYPE
 DMOD.             Drill Model:  DRILL MOD DESC
 SVYD.                  Survey:  SURVEY DESC
 ILTD.               Lithology:  INTERP LTH DESC
 FTOP.          Formation Tops:  FORM TOPS DESC
 SON .        IN-XX-0907787982:  JOB NUMBER
 PDAT.          Mean Sea Level:  PERMANENT DATUM
 UWI .                      NA:  UNIQUE WELL IDENTIFIER
 API .                      NA:  API NUMBER
 MWDS.                  Taloja:  MWD SHOP
 JOBN.        IN-XX-0907787982:  JOB TICKET NUMB
 RIG .                   VG_9:  RIG NAME
 DOE .                      NA:  DOE NUMBER
 CNTY.                       .:  COUNTY NAME
 DCON.         Sperry Drilling:  DIRECTNL CONTR
 UNIT.                11175629:  LOGGING EQUIPMENT ID
 GCDE.     Generic Lat/Long's, Degrees, -180 ==> +180:  GEO COORD DESC
 CCDE.     Indian 1975 (Zone 2A) Thailand CM 74:  CART COORD DESC
 GGSY.                      LL:  GEO GRID SYS
 CGSY.          SS INDIAN-CM74:  CART GRID SYS
 GREF.     Ellipsoid World Geodetic System :  GEO REFERENCE
 MMDL.            bggm2021.dat:  MAGNETIC MODEL
 MMDD.          05 April, 2022:  MAG DATA DATE
 MDS .              Win MagUTM:  MAG DATA SOURCE
 LLGR.      Latitude/Longitude:  LLGROUP
 XYGR.     Asian Coordinate Systems:  XYGROUP
 LOC .                        :  LOCATION
 TVDS.m                  64.55:  TVDSS CORRECTN
 LATI.deg                25.30:  LATITUDE
 LONG.deg                71.77:  LONGITUDE
 WHNS.m                   0.00:  WELL HEAD N/S
 WHEW.m                   0.00:  WELL HEAD E/W
 UTMX.m             2051879.80:  UTM X
 UTMY.m              878801.73:  UTM Y
 DFWL.m                   0.00:  DISTANCE FWL
 DFSL.m                   0.00:  DISTANCE FSL
 SDEP.m                   0.00:  START DEPTH
 TDD .m                   0.00:  TOTAL DEPTH (DRILLER)
 VSDR.deg               350.40:  VERT SEC DIRECT
 GVFD.g                   1.00:  GRAVITY FIELD
 MFLD.nT              45311.10:  MAGNETIC FIELD
 MDIP.deg                40.06:  MAGNETIC DIP
 MDEC.deg                 1.01:  MAGNETIC DECL
 GRDC.deg                -0.98:  GRID CORRECTION
 AZTC.deg                 1.99:  AZM TOTAL CORR
 EPD .m                   0.00:  ELEVATION
 EGL .m                  57.80:  GROUND ELEVATION
 WDMS.m                   0.00:  WD ELEV
 APD .m                  64.55:  DEPTH ABOVE PD
 AGAP.m                   6.75:  AIR GAP
 MMDE.m                   0.00:  MAGUTM CALC DEP
 CMER.deg                74.00:  CENTRL MERIDIAN
 DEP .m                 915.49:  DEPTH
 VSC .                       0:  VS TO CLOSURE
 MAGU.                 1603544:  MAGUTM CHECKSUM
~Curve Information Block
#MNEM.UNIT                 API CODE     Curve Description
#---------               -----------    ---------------------------
 DEPT.M                 00 000 000 000:  Depth
 TVD .m                 00 000 000 000:  True Vertical Depth
 SROP.m/hr              00 000 000 000:  Smoothed Rate of Penetration
 SGRC.api               00 000 000 000:  Smoothed Gamma Ray Combined Borehole Corrected
 ABG .api               00 000 000 000:  Smoothed At Bit Gamma Ray Combined BC
 SFXE.hr                00 000 000 000:  Smoothed Formation Exposure Time
 SEXP.ohmm              00 000 000 000:  Smoothed BC Extra Shallow Phase Resistivity
 SEXA.ohmm              00 000 000 000:  Smoothed BC Extra Shallow Attenuation Resistivity
 SESP.ohmm              00 000 000 000:  Smoothed BC Shallow Phase Resistivity
 SESA.ohmm              00 000 000 000:  Smoothed BC Shallow Attenuation Resistivity
 SEMP.ohmm              00 000 000 000:  Smoothed BC Medium Phase Resistivity
 SEMA.ohmm              00 000 000 000:  Smoothed BC Medium Attenuation Resistivity
 SEDP.ohmm              00 000 000 000:  Smoothed BC Deep Phase Resistivity
 SEDA.ohmm              00 000 000 000:  Smoothed BC Deep Attenuation Resistivity
 ALCDTQ.g/cc            00 000 000 000:  ALD Comp Density T-Quad
 ALCDRQ.g/cc            00 000 000 000:  ALD Comp Density R-Quad
 ALCDBQ.g/cc            00 000 000 000:  ALD Comp Density B-Quad
 ALCDLQ.g/cc            00 000 000 000:  ALD Comp Density L-Quad
 HSI .in                00 000 000 000:  ALD Hole Size Indicator
 SBD2.g/cc              00 000 000 000:  Smoothed Bulk Density
 SCO2.g/cc              00 000 000 000:  Smoothed Standoff Correction
 TNPS.pu                00 000 000 000:  CTN Porosity Sandstone
 PAP .psig              00 000 000 000:  Smoothed PWD Annular Pressure
 ECD .ppg               00 000 000 000:  Smoothed Equivalent Circulating Density
 TEMP.degC              00 000 000 000:  Temperature
#Other Information

#
~A   DEPT      TVD    SROP    SGRC     ABG    SFXE    SEXP    SEXA    SESP    SESA    SEMP    SEMA    SEDP    SEDA   ALCDTQ  ALCDRQ  ALCDBQ  ALCDLQ    HSI    SBD2    SCO2     TNPS     PAP     ECD    TEMP   
# ...
   1443.0756 1254.98   13.00   65.90   65.43    1.10    0.97    1.08    0.93    1.15    0.97    1.18    1.05    1.10    2.25    2.25    2.22    2.28    8.87    2.25    0.03    50.97 2592.69   12.11   56.40
   1443.2280 1255.11   12.70   67.70   69.24    1.10    0.96    1.07    0.93    1.13    0.95    1.18    1.04    1.10    2.24    2.24    2.24    2.26    8.87    2.25    0.03    50.93 2592.29   12.11   56.40
   1443.3804 1255.24   12.94   70.42   67.17    1.10    0.95    1.07    0.94    1.12    0.95    1.17    1.02    1.14    2.23    2.24    2.22    2.25    8.87    2.24    0.03    53.11 2592.82   12.11   56.40
   1443.5328 1255.38   13.81   67.08   70.44    1.11    0.94    1.08    0.94    1.12    0.97    1.15    1.01    1.12    2.24    2.24    2.24    2.25    8.87    2.24    0.03    51.62 2593.33   12.11   56.40
   1443.6852 1255.51   14.59   65.65   69.62    1.11    0.96    1.08    0.95    1.12    0.98    1.16    1.01    1.10    2.24    2.23    2.23    2.23    8.87    2.24    0.03    52.19 2593.66   12.11   56.40
   1443.8376 1255.64   14.51   64.35   64.83    1.11    0.98    1.08    0.97    1.12    1.01    1.14    1.05    1.05    2.25    2.24    2.23    2.24    8.87    2.24    0.03    51.87 2594.06   12.11   56.40
   1443.9900 1255.78   14.04   67.14   67.95    1.11    1.00    1.09    0.99    1.12    1.01    1.15    1.04    1.08    2.24    2.26    2.22    2.24    8.87    2.24    0.03    50.57 2594.18   12.11   56.40
   1444.1424 1255.91   14.01   69.77   65.81    1.11    1.00    1.10    0.98    1.14    1.00    1.16    1.04    1.10    2.25    2.25    2.25    2.24    8.86    2.24    0.03    51.44 2594.76   12.11   56.40
   1444.2948 1256.04   14.25   67.63   65.13    1.11    1.01    1.12    0.98    1.14    0.98    1.17    1.02    1.11    2.24    2.26    2.25    2.26    8.85    2.25    0.03    52.76 2595.14   12.11   56.40
   1444.4472 1256.17   14.37   71.43   62.62    1.11    1.01    1.12    0.98    1.17    0.99    1.18    1.03    1.14    2.25    2.26    2.25    2.25    8.85    2.25    0.03    51.76 2595.69   12.11   56.40
   1444.5996 1256.31   14.57   71.86   64.44    1.11    1.04    1.14    1.03    1.19    1.04    1.21    1.08    1.18    2.25    2.27    2.27    2.24    8.86    2.26    0.03    49.53 2595.80   12.11   56.40
   1444.7520 1256.44   14.95   69.14   67.25    1.11    1.09    1.17    1.07    1.21    1.10    1.23    1.15    1.17    2.26    2.28    2.27    2.26    8.85    2.27    0.03    51.44 2595.92   12.11   56.40
   1444.9044 1256.58   15.23   76.38   69.69    1.12    1.12    1.21    1.12    1.23    1.14    1.25    1.19    1.18    2.27    2.28    2.28    2.27    8.85    2.27    0.03    50.34 2596.24   12.11   56.40
   1445.0568 1256.70   14.26   75.20   73.75    1.12    1.16    1.24    1.16    1.25    1.18    1.25    1.22    1.15    2.27    2.27    2.27    2.29    8.84    2.27    0.03    51.03 2596.54   12.11   56.40
   1445.2092 1256.84   13.84   77.07   77.39    1.12    1.16    1.23    1.14    1.26    1.14    1.25    1.16    1.19    2.27    2.26    2.27    2.27    8.84    2.28    0.03    51.85 2596.44   12.11   56.40
   1445.3616 1256.97   14.57   78.94   76.49    1.12    1.12    1.21    1.10    1.24    1.09    1.23    1.12    1.21    2.27    2.27    2.25    2.26    8.84    2.26    0.03    51.80 2596.55   12.11   56.40
   1445.5140 1257.11   14.61   77.85   73.24    1.13    1.07    1.19    1.06    1.22    1.06    1.23    1.09    1.15    2.26    2.26    2.26    2.26    8.86    2.26    0.03    54.40 2596.67   12.11   56.40
   1445.6664 1257.24   14.50   79.30   74.58    1.13    1.05    1.17    1.04    1.20    1.05    1.22    1.10    1.17    2.26    2.26    2.26    2.26    8.85    2.26    0.03    53.27 2596.92   12.11   56.40
   1445.8188 1257.37   14.70   79.74   75.49    1.13    1.04    1.16    1.02    1.20    1.04    1.22    1.10    1.16    2.27    2.27    2.27    2.25    8.85    2.27    0.03    55.02 2596.90   12.11   56.40
   1445.9712 1257.50   14.76   74.60   75.04    1.13    1.04    1.17    1.03    1.20    1.04    1.23    1.10    1.18    2.25    2.26    2.27    2.26    8.85    2.26    0.03    54.15 2596.86   12.10   56.40
   1446.1236 1257.64   14.75   81.14   73.46    1.13    1.04    1.17    1.03    1.20    1.04    1.24    1.10    1.16    2.27    2.26    2.26    2.27    8.85    2.26    0.03    52.25 2596.98   12.10   56.40
   1446.2760 1257.77   14.64   74.00   73.36    1.14    1.05    1.17    1.03    1.22    1.03    1.23    1.08    1.20    2.27    2.26    2.24    2.26    8.85    2.26    0.03    52.35 2597.16   12.10   56.40
   1446.4284 1257.91   14.80   73.51   75.93    1.20    1.06    1.19    1.03    1.23    1.04    1.23    1.07    1.19    2.27    2.25    2.24    2.24    8.86    2.25    0.03    52.95 2597.66   12.10   56.48
   1446.5808 1258.03   15.06   80.22   74.36    1.47    1.06    1.19    1.04    1.23    1.04    1.23    1.07    1.18    2.26    2.25    2.25    2.25    8.85    2.25    0.03    53.92 2597.87   12.10   56.80
   1446.7332 1258.17   15.07   74.23   74.15    1.78    1.08    1.19    1.05    1.22    1.04    1.25    1.08    1.15    2.25    2.25    2.26    2.27    8.85    2.26    0.03    53.81 2597.97   12.10   57.19
   1446.8856 1258.30   15.04   79.76   70.97    1.78    1.07    1.18    1.04    1.24    1.05    1.24    1.09    1.18    2.26    2.26    2.26    2.27    8.86    2.26    0.03    55.45 2598.04   12.10   57.25
   1447.0380 1258.43   14.79   83.50   69.24    1.79    1.06    1.18    1.04    1.23    1.05    1.24    1.09    1.17    2.27    2.26    2.24    2.27    8.85    2.27    0.03    53.87 2598.42   12.10   57.25
   1447.1904 1258.56   14.77   75.45   71.91    1.79    1.07    1.18    1.04    1.24    1.04    1.25    1.08    1.17    2.26    2.25    2.26    2.27    8.85    2.26    0.03    53.32 2598.77   12.10   57.25
   1447.3428 1258.70   15.43   74.24   68.95    1.79    1.07    1.20    1.04    1.24    1.04    1.28    1.09    1.19    2.25    2.26    2.26    2.26    8.85    2.25    0.03    54.82 2598.74   12.10   57.25
   1447.4952 1258.83   15.52   74.07   71.78    1.80    1.07    1.21    1.04    1.26    1.05    1.28    1.11    1.18    2.26    2.25    2.25    2.26    8.86    2.26    0.03    54.86 2599.26   12.10   57.25
   1447.6476 1258.97   14.97   76.51   70.62    1.80    1.08    1.23    1.05    1.27    1.07    1.30    1.12    1.22    2.25    2.26    2.24    2.26    8.86    2.25    0.03    52.58 2599.52   12.10   57.25
   1447.8000 1259.10   14.13   78.91   73.16    1.80    1.10    1.21    1.08    1.26    1.09    1.27    1.14    1.23    2.25    2.24    2.24    2.25    8.86    2.25    0.03    53.11 2599.64   12.10   57.25
   1447.9524 1259.23   13.18   71.30   72.49    1.80    1.10    1.21    1.07    1.26    1.08    1.29    1.12    1.20    2.24    2.25    2.24    2.25    8.86    2.25    0.03    51.33 2600.45   12.10   57.21
   1448.1048 1259.36   13.36   70.49   68.38    1.81    1.08    1.21    1.06    1.26    1.06    1.31    1.11    1.21    2.25    2.23    2.22    2.24    8.86    2.24    0.03    53.53 2601.24   12.11   56.72
   1448.2572 1259.50   13.84   69.52   67.72    1.81    1.07    1.21    1.05    1.28    1.07    1.31    1.12    1.24    2.25    2.24    2.23    2.24    8.86    2.24    0.03    54.88 2601.56   12.11   56.40
   1448.4096 1259.63   13.34   68.98   68.04    1.81    1.08    1.22    1.05    1.28    1.08    1.30    1.11    1.26    2.26    2.25    2.24    2.25    8.86    2.25    0.03    56.39 2602.12   12.11   56.40
   1448.5620 1259.76   13.00   73.06   66.98    1.81    1.08    1.21    1.06    1.27    1.06    1.29    1.10    1.23    2.26    2.26    2.24    2.25    8.86    2.25    0.03    54.23 2602.38   12.11   56.40
   1448.7144 1259.89   13.27   72.34   69.77    1.81    1.08    1.22    1.05    1.28    1.05    1.31    1.10    1.20    2.25    2.26    2.25    2.25    8.86    2.25    0.03    52.57 2603.18   12.11   56.40
   1448.8668 1260.03   13.59   73.39   68.92    1.81    1.08    1.23    1.07    1.29    1.11    1.29    1.14    1.19    2.26    2.25    2.25    2.23    8.86    2.24    0.03    53.23 2603.45   12.11   56.40
