~Version Information
 VERS.                  2.0:   CWLS log ASCII Standard -VERSION 2.0
 WRAP.                   NO:   One line per depth step
~Well Information Block
#MNEM.UNIT     VALUE/NAME     DESCRIPTION
#---------     -----------    ---------------------------
 STRT.M               914.0952: START DEPTH
 STOP.M              1646.9868: STOP DEPTH
 STEP.M                 0.1524: STEP DEPTH
 NULL.                 -999.25: NULL VALUE
 WTYP.                Deviated:  WELL TYPE
 DFWT.                        :  DIST FWL TEXT
 DFST.                        :  DIST FSL TEXT
 DMF .             Drill Floor:  DRILL MEAS FROM
 NREF.                    Grid:  NORTH REFERENCE
 HPTY.       Minimum Curvature:  HOLE POS TYPE
 DMOD.             Drill Model:  DRILL MOD DESC
 SVYD.                  Survey:  SURVEY DESC
 ILTD.               Lithology:  INTERP LTH DESC
 FTOP.          Formation Tops:  FORM TOPS DESC
 SON .        IN-XX-0907787982:  JOB NUMBER
 PDAT.          Mean Sea Level:  PERMANENT DATUM
 UWI .                      NA:  UNIQUE WELL IDENTIFIER
 API .                      NA:  API NUMBER
 MWDS.                  Taloja:  MWD SHOP
 JOBN.        IN-XX-0907787982:  JOB TICKET NUMB
 RIG .                   VG_9:  RIG NAME
 DOE .                      NA:  DOE NUMBER
 CNTY.                       .:  COUNTY NAME
 DCON.         Sperry Drilling:  DIRECTNL CONTR
 UNIT.                11175629:  LOGGING EQUIPMENT ID
 GCDE.     Generic Lat/Long's, Degrees, -180 ==> +180:  GEO COORD DESC
 CCDE.     Indian 1975 (Zone 2A) Thailand CM 74:  CART COORD DESC
 GGSY.                      LL:  GEO GRID SYS
 CGSY.          SS INDIAN-CM74:  CART GRID SYS
 GREF.     Ellipsoid World Geodetic System :  GEO REFERENCE
 MMDL.            bggm2021.dat:  MAGNETIC MODEL
 MMDD.          05 April, 2022:  MAG DATA DATE
 MDS .              Win MagUTM:  MAG DATA SOURCE
 LLGR.      Latitude/Longitude:  LLGROUP
 XYGR.     Asian Coordinate Systems:  XYGROUP
 LOC .                        :  LOCATION
 TVDS.m                  64.55:  TVDSS CORRECTN
 LATI.deg                25.30:  LATITUDE
 LONG.deg                71.77:  LONGITUDE
 WHNS.m                   0.00:  WELL HEAD N/S
 WHEW.m                   0.00:  WELL HEAD E/W
 UTMX.m             2051879.80:  UTM X
 UTMY.m              878801.73:  UTM Y
 DFWL.m                   0.00:  DISTANCE FWL
 DFSL.m                   0.00:  DISTANCE FSL
 SDEP.m                   0.00:  START DEPTH
 TDD .m                   0.00:  TOTAL DEPTH (DRILLER)
 VSDR.deg               350.40:  VERT SEC DIRECT
 GVFD.g                   1.00:  GRAVITY FIELD
 MFLD.nT              45311.10:  MAGNETIC FIELD
 MDIP.deg                40.06:  MAGNETIC DIP
 MDEC.deg                 1.01:  MAGNETIC DECL
 GRDC.deg                -0.98:  GRID CORRECTION
 AZTC.deg                 1.99:  AZM TOTAL CORR
 EPD .m                   0.00:  ELEVATION
 EGL .m                  57.80:  GROUND ELEVATION
 WDMS.m                   0.00:  WD ELEV
 APD .m                  64.55:  DEPTH ABOVE PD
 AGAP.m                   6.75:  AIR GAP
 MMDE.m                   0.00:  MAGUTM CALC DEP
 CMER.deg                74.00:  CENTRL MERIDIAN
 DEP .m                 915.49:  DEPTH
 VSC .                       0:  VS TO CLOSURE
 MAGU.                 1603544:  MAGUTM CHECKSUM
~Curve Information Block
#MNEM.UNIT                 API CODE     Curve Description
#---------               -----------    ---------------------------
 DEPT.M                 00 000 000 000:  Depth
 TVD .m                 00 000 000 000:  True Vertical Depth
 SROP.m/hr              00 000 000 000:  Smoothed Rate of Penetration
 SGRC.api               00 000 000 000:  Smoothed Gamma Ray Combined Borehole Corrected
 ABG .api               00 000 000 000:  Smoothed At Bit Gamma Ray Combined BC
 SFXE.hr                00 000 000 000:  Smoothed Formation Exposure Time
 SEXP.ohmm              00 000 000 000:  Smoothed BC Extra Shallow Phase Resistivity
 SEXA.ohmm              00 000 000 000:  Smoothed BC Extra Shallow Attenuation Resistivity
 SESP.ohmm              00 000 000 000:  Smoothed BC Shallow Phase Resistivity
 SESA.ohmm              00 000 000 000:  Smoothed BC Shallow Attenuation Resistivity
 SEMP.ohmm              00 000 000 000:  Smoothed BC Medium Phase Resistivity
 SEMA.ohmm              00 000 000 000:  Smoothed BC Medium Attenuation Resistivity
 SEDP.ohmm              00 000 000 000:  Smoothed BC Deep Phase Resistivity
 SEDA.ohmm              00 000 000 000:  Smoothed BC Deep Attenuation Resistivity
 ALCDTQ.g/cc            00 000 000 000:  ALD Comp Density T-Quad
 ALCDRQ.g/cc            00 000 000 000:  ALD Comp Density R-Quad
 ALCDBQ.g/cc            00 000 000 000:  ALD Comp Density B-Quad
 ALCDLQ.g/cc            00 000 000 000:  ALD Comp Density L-Quad
 HSI .in                00 000 000 000:  ALD Hole Size Indicator
 SBD2.g/cc              00 000 000 000:  Smoothed Bulk Density
 SCO2.g/cc              00 000 000 000:  Smoothed Standoff Correction
 TNPS.pu                00 000 000 000:  CTN Porosity Sandstone
 PAP .psig              00 000 000 000:  Smoothed PWD Annular Pressure
 ECD .ppg               00 000 000 000:  Smoothed Equivalent Circulating Density
 TEMP.degC              00 000 000 000:  Temperature
#Other Information

#
~A   DEPT      TVD    SROP    SGRC     ABG    SFXE    SEXP    SEXA    SESP    SESA    SEMP    SEMA    SEDP    SEDA   ALCDTQ  ALCDRQ  ALCDBQ  ALCDLQ    HSI    SBD2    SCO2     TNPS     PAP     ECD    TEMP   
# ...
   1347.9780 1172.25    5.02   10.19   10.08    3.36   24.09  111.79   22.57  193.24   21.13   53.98   22.61   44.54    1.20    1.22    1.23    1.21    9.54    1.20   -0.10    98.57 2401.25   12.01   52.12
   1348.1304 1172.38    5.04    8.66   11.33    3.35   22.92  167.54   21.68  181.25   20.44   57.12   22.08   62.16    1.22    1.23    1.23    1.22    9.54    1.22   -0.10    95.05 2401.31   12.01   52.12
   1348.2828 1172.51    5.24   10.60   12.14    3.35   21.72  146.52   21.23  198.45   20.42   59.05   22.24   70.41    1.24    1.25    1.23    1.24    9.40    1.24   -0.10    92.18 2401.46   12.01   52.12
   1348.4352 1172.64    5.34   11.16   13.43    3.35   21.04  196.44   20.98  200.00   20.60   64.76   22.27   52.34    1.23    1.23    1.24    1.23    9.43    1.23   -0.10    95.39 2401.71   12.01   52.12
   1348.5876 1172.78    5.33   11.13   12.68    3.34   20.74  200.00   20.68  198.81   20.69   63.09   22.64   43.63    1.23    1.23    1.24    1.22    9.42    1.23   -0.10    90.50 2402.05   12.01   52.12
   1348.7400 1172.91    5.36   13.53   10.60    3.34   20.90  200.00   20.89  172.10   20.82   60.32   22.67   50.24    1.23    1.23    1.23    1.22    9.41    1.22   -0.10   100.91 2402.42   12.01   52.12
   1348.8924 1173.04    5.34   13.10   10.11    3.34   22.16  177.36   21.60  138.24   21.44   54.80   22.79   47.98    1.23    1.23    1.23    1.22    9.48    1.23   -0.10   106.34 2403.10   12.01   52.12
   1349.0448 1173.17    5.26   13.77    9.68    3.34   23.77   63.21   22.43  153.47   21.81   50.32   23.50   52.76    1.23    1.23    1.23    1.22    9.41    1.23   -0.10    98.75 2403.49   12.01   52.12
   1349.1972 1173.31    5.19   11.46    9.86    3.34   24.17   61.82   22.16  150.14   21.21   48.94   23.14   77.53    1.22    1.23    1.23    1.24    9.40    1.22   -0.10   101.29 2404.05   12.01   52.12
   1349.3496 1173.44    5.21   10.77    9.71    3.35   22.54   62.27   21.04  102.76   19.76   47.35   21.47   49.73    1.21    1.23    1.23    1.23    9.44    1.21   -0.10    99.22 2404.34   12.01   52.12
   1349.5020 1173.57    5.11   10.90    9.50    3.35   19.44   90.87   18.75  101.10   17.71   45.82   19.34   40.86    1.22    1.22    1.23    1.22    9.44    1.23   -0.10    99.81 2404.43   12.01   52.12
   1349.6544 1173.71    5.00    9.86    9.06    3.42   17.74  107.67   17.71   96.47   17.12   42.72   18.88   44.63    1.23    1.22    1.23    1.22    9.38    1.22   -0.10    94.44 2404.62   12.01   52.12
   1349.8068 1173.84    5.06    8.76    8.92    3.68   16.72   89.85   16.74  107.53   16.44   41.10   18.32   41.03    1.22    1.23    1.24    1.23    9.34    1.23   -0.07   105.78 2404.47   12.01   52.12
   1349.9592 1173.97    5.09    8.72    9.35    3.88   14.47   95.60   14.68   80.21   14.91   35.45   17.10   28.69    1.23    1.25    1.23    1.25    9.41    1.24   -0.09    89.06 2404.39   12.00   52.12
   1350.1116 1174.10    5.10    9.71   10.05    3.87   14.17   72.72   14.27   71.53   14.60   32.36   16.70   26.19    1.26    1.25    1.22    1.24    9.38    1.26   -0.10    92.19 2404.33   12.00   52.14
   1350.2640 1174.24    5.22    9.17   10.48    3.86   14.23   62.02   14.19   53.18   14.48   30.72   16.71   22.73    1.27    1.23    1.21    1.23    9.27    1.26   -0.10    88.75 2404.37   12.00   52.37
   1350.4164 1174.37    5.29    9.35   13.00    3.84   13.97   56.93   13.69   44.10   13.92   28.46   16.07   22.67    1.22    1.22    1.21    1.22    9.27    1.22   -0.10    90.43 2404.48   12.00   52.80
   1350.5688 1174.50    5.28    8.84   14.29    3.83   13.17   46.78   13.01   44.31   12.95   26.57   14.66   24.77    1.21    1.22    1.22    1.22    9.38    1.22   -0.10    97.07 2404.49   12.00   52.98
   1350.7212 1174.63    5.28    9.76   21.05    3.81   12.64   54.97   12.51   33.68   12.46   24.57   14.04   22.88    1.21    1.22    1.22    1.22    9.39    1.21   -0.10    91.93 2404.44   12.00   52.98
   1350.8736 1174.77    5.25   11.21   29.17    3.80   12.35   32.73   12.24   27.54   12.20   22.70   13.65   19.73    1.22    1.23    1.23    1.22    9.41    1.21   -0.10    96.21 2404.94   12.00   52.98
   1351.0260 1174.90    5.21   14.29   41.06    3.78   12.19   28.34   12.08   24.68   12.10   19.80   13.17   17.05    1.22    1.23    1.24    1.22    9.42    1.23   -0.10    82.47 2405.68   12.00   52.98
   1351.1784 1175.03    5.15   17.02   51.92    3.76   12.18   21.25   11.91   20.23   11.86   16.94   12.61   15.64    1.23    1.26    1.29    1.25    9.17    1.26   -0.07    83.64 2406.73   12.01   52.98
   1351.3308 1175.16    5.17   23.83   68.26    3.75   11.97   17.60   11.52   17.74   11.21   15.36   11.72   13.94    1.25    1.33    1.37    1.30    9.18    1.33   -0.07    94.55 2407.70   12.01   52.98
   1351.4832 1175.30    5.25   33.44   87.63    3.73   11.58   16.55   10.97   14.74   10.62   13.86   11.16   13.21    1.32    1.40    1.41    1.34    9.20    1.40   -0.07    83.51 2408.47   12.01   52.98
   1351.6356 1175.43    5.15   46.81   94.89    3.71   10.60   13.32   10.07   13.36    9.90   12.65   10.58   12.87    1.40    1.48    1.66    1.46   10.13    1.60   -0.10    67.67 2408.80   12.01   52.98
   1351.7880 1175.56    5.16   61.64  101.17    3.70    8.96   10.85    8.65   11.71    8.55   11.30    9.09   11.03    1.46    1.65    1.89    1.64   10.13    1.89   -0.05    74.26 2409.23   12.01   52.98
   1351.9404 1175.70    5.23   81.79  100.58    3.68    7.02    9.10    6.95   10.00    6.80   10.03    7.21   10.75    1.68    1.87    1.93    1.85    9.80    1.97   -0.04    65.00 2409.44   12.01   52.98
   1352.0928 1175.83    5.15   87.03   95.83    3.67    6.01    8.46    6.18    9.35    6.25    9.27    6.80   10.02    1.95    1.94    1.96    1.93    9.46    1.99    0.03    57.91 2409.38   12.01   52.98
   1352.2452 1175.96    5.17   99.23   98.51    3.65    5.50    7.64    5.64    8.72    5.84    8.67    6.45    9.24    1.92    1.92    2.03    1.95    9.20    1.99    0.01    61.51 2409.55   12.01   52.98
   1352.3976 1176.09    5.20  100.66   97.98    3.63    5.18    7.14    5.25    8.11    5.44    8.25    6.18    9.22    2.00    2.00    2.04    2.02    8.99    2.03    0.00    60.40 2409.84   12.01   52.98
   1352.5500 1176.23    5.18  101.87   97.65    3.62    5.03    6.99    5.09    7.67    5.30    7.86    6.01    8.79    2.04    2.04    2.05    2.03    9.09    2.04    0.03    59.31 2410.29   12.01   52.98
   1352.7024 1176.36    5.08  101.98   98.08    3.61    5.06    6.74    5.04    7.30    5.21    7.52    5.83    8.24    2.00    2.02    2.04    2.04    9.09    2.03    0.03    57.53 2410.56   12.01   52.98
   1352.8548 1176.49    4.80  104.77   95.18    3.58    5.16    6.80    5.07    6.97    5.12    7.22    5.67    7.77    1.97    2.02    2.06    2.07    9.15    2.04    0.03    58.91 2410.87   12.01   52.98
   1353.0072 1176.63    4.57  105.66   95.33    3.57    5.25    6.40    5.12    6.81    5.08    6.91    5.54    7.77    2.02    2.06    2.07    2.06    9.15    2.06    0.03    58.18 2410.96   12.01   52.98
   1353.1596 1176.76    4.43  100.44   98.06    3.55    5.44    6.47    5.31    6.64    5.25    6.65    5.69    7.35    2.05    2.03    2.06    2.06    9.00    2.06    0.03    55.77 2411.08   12.01   52.98
   1353.3120 1176.89    4.36   98.15   93.50    3.41    5.45    6.54    5.30    6.59    5.13    6.48    5.44    6.95    1.98    1.99    2.07    2.01    9.23    2.04    0.01    55.16 2411.26   12.01   52.98
   1353.4644 1177.05    3.75   94.11   98.55    3.30    5.31    6.49    5.16    6.57    4.94    6.43    5.12    7.00    1.97    2.01    2.09    2.02    9.26    2.07    0.01    57.18 2411.36   12.01   52.98
   1353.6168 1177.16    1.68  102.61   95.63    3.16    5.28    6.35    5.16    6.57    5.00    6.34    5.19    7.15    2.09    2.11    2.14    2.11    9.03    2.12    0.03    58.97 2411.42   12.01   52.98
   1353.7692 1177.22    0.29  105.48   96.48    2.81    5.23    6.68    5.11    6.65    5.02    6.32    5.24    6.44    2.14    2.15    2.15    2.13    8.94    2.14    0.03    53.58 2411.52   12.01   52.98
