~Version Information
 VERS.                  2.0:   CWLS log ASCII Standard -VERSION 2.0
 WRAP.                   NO:   One line per depth step
~Well Information Block
#MNEM.UNIT     VALUE/NAME     DESCRIPTION
#---------     -----------    ---------------------------
 STRT.M               914.0952: START DEPTH
 STOP.M              1646.9868: STOP DEPTH
 STEP.M                 0.1524: STEP DEPTH
 NULL.                 -999.25: NULL VALUE
 WTYP.                Deviated:  WELL TYPE
 DFWT.                        :  DIST FWL TEXT
 DFST.                        :  DIST FSL TEXT
 DMF .             Drill Floor:  DRILL MEAS FROM
 NREF.                    Grid:  NORTH REFERENCE
 HPTY.       Minimum Curvature:  HOLE POS TYPE
 DMOD.             Drill Model:  DRILL MOD DESC
 SVYD.                  Survey:  SURVEY DESC
 ILTD.               Lithology:  INTERP LTH DESC
 FTOP.          Formation Tops:  FORM TOPS DESC
 SON .        IN-XX-0907787982:  JOB NUMBER
 PDAT.          Mean Sea Level:  PERMANENT DATUM
 UWI .                      NA:  UNIQUE WELL IDENTIFIER
 API .                      NA:  API NUMBER
 MWDS.                  Taloja:  MWD SHOP
 JOBN.        IN-XX-0907787982:  JOB TICKET NUMB
 RIG .                   VG_9:  RIG NAME
 DOE .                      NA:  DOE NUMBER
 CNTY.                       .:  COUNTY NAME
 DCON.         Sperry Drilling:  DIRECTNL CONTR
 UNIT.                11175629:  LOGGING EQUIPMENT ID
 GCDE.     Generic Lat/Long's, Degrees, -180 ==> +180:  GEO COORD DESC
 CCDE.     Indian 1975 (Zone 2A) Thailand CM 74:  CART COORD DESC
 GGSY.                      LL:  GEO GRID SYS
 CGSY.          SS INDIAN-CM74:  CART GRID SYS
 GREF.     Ellipsoid World Geodetic System :  GEO REFERENCE
 MMDL.            bggm2021.dat:  MAGNETIC MODEL
 MMDD.          05 April, 2022:  MAG DATA DATE
 MDS .              Win MagUTM:  MAG DATA SOURCE
 LLGR.      Latitude/Longitude:  LLGROUP
 XYGR.     Asian Coordinate Systems:  XYGROUP
 LOC .                        :  LOCATION
 TVDS.m                  64.55:  TVDSS CORRECTN
 LATI.deg                25.30:  LATITUDE
 LONG.deg                71.77:  LONGITUDE
 WHNS.m                   0.00:  WELL HEAD N/S
 WHEW.m                   0.00:  WELL HEAD E/W
 UTMX.m             2051879.80:  UTM X
 UTMY.m              878801.73:  UTM Y
 DFWL.m                   0.00:  DISTANCE FWL
 DFSL.m                   0.00:  DISTANCE FSL
 SDEP.m                   0.00:  START DEPTH
 TDD .m                   0.00:  TOTAL DEPTH (DRILLER)
 VSDR.deg               350.40:  VERT SEC DIRECT
 GVFD.g                   1.00:  GRAVITY FIELD
 MFLD.nT              45311.10:  MAGNETIC FIELD
 MDIP.deg                40.06:  MAGNETIC DIP
 MDEC.deg                 1.01:  MAGNETIC DECL
 GRDC.deg                -0.98:  GRID CORRECTION
 AZTC.deg                 1.99:  AZM TOTAL CORR
 EPD .m                   0.00:  ELEVATION
 EGL .m                  57.80:  GROUND ELEVATION
 WDMS.m                   0.00:  WD ELEV
 APD .m                  64.55:  DEPTH ABOVE PD
 AGAP.m                   6.75:  AIR GAP
 MMDE.m                   0.00:  MAGUTM CALC DEP
 CMER.deg                74.00:  CENTRL MERIDIAN
 DEP .m                 915.49:  DEPTH
 VSC .                       0:  VS TO CLOSURE
 MAGU.                 1603544:  MAGUTM CHECKSUM
~Curve Information Block
#MNEM.UNIT                 API CODE     Curve Description
#---------               -----------    ---------------------------
 DEPT.M                 00 000 000 000:  Depth
 TVD .m                 00 000 000 000:  True Vertical Depth
 SROP.m/hr              00 000 000 000:  Smoothed Rate of Penetration
 SGRC.api               00 000 000 000:  Smoothed Gamma Ray Combined Borehole Corrected
 ABG .api               00 000 000 000:  Smoothed At Bit Gamma Ray Combined BC
 SFXE.hr                00 000 000 000:  Smoothed Formation Exposure Time
 SEXP.ohmm              00 000 000 000:  Smoothed BC Extra Shallow Phase Resistivity
 SEXA.ohmm              00 000 000 000:  Smoothed BC Extra Shallow Attenuation Resistivity
 SESP.ohmm              00 000 000 000:  Smoothed BC Shallow Phase Resistivity
 SESA.ohmm              00 000 000 000:  Smoothed BC Shallow Attenuation Resistivity
 SEMP.ohmm              00 000 000 000:  Smoothed BC Medium Phase Resistivity
 SEMA.ohmm              00 000 000 000:  Smoothed BC Medium Attenuation Resistivity
 SEDP.ohmm              00 000 000 000:  Smoothed BC Deep Phase Resistivity
 SEDA.ohmm              00 000 000 000:  Smoothed BC Deep Attenuation Resistivity
 ALCDTQ.g/cc            00 000 000 000:  ALD Comp Density T-Quad
 ALCDRQ.g/cc            00 000 000 000:  ALD Comp Density R-Quad
 ALCDBQ.g/cc            00 000 000 000:  ALD Comp Density B-Quad
 ALCDLQ.g/cc            00 000 000 000:  ALD Comp Density L-Quad
 HSI .in                00 000 000 000:  ALD Hole Size Indicator
 SBD2.g/cc              00 000 000 000:  Smoothed Bulk Density
 SCO2.g/cc              00 000 000 000:  Smoothed Standoff Correction
 TNPS.pu                00 000 000 000:  CTN Porosity Sandstone
 PAP .psig              00 000 000 000:  Smoothed PWD Annular Pressure
 ECD .ppg               00 000 000 000:  Smoothed Equivalent Circulating Density
 TEMP.degC              00 000 000 000:  Temperature
#Other Information

#
~A   DEPT      TVD    SROP    SGRC     ABG    SFXE    SEXP    SEXA    SESP    SESA    SEMP    SEMA    SEDP    SEDA   ALCDTQ  ALCDRQ  ALCDBQ  ALCDLQ    HSI    SBD2    SCO2     TNPS     PAP     ECD    TEMP   
# ...
   1484.6808 1291.25   10.61   86.24   85.87    2.12    1.12    1.30    1.10    1.34    1.12    1.36    1.18    1.28    2.31    2.31    2.29    2.29    8.84    2.30    0.02    52.97 2680.58   12.17   60.67
   1484.8332 1291.39   10.44   89.99   81.37    2.11    1.12    1.29    1.10    1.34    1.12    1.35    1.17    1.28    2.31    2.31    2.31    2.30    8.83    2.31    0.02    52.61 2680.39   12.17   60.67
   1484.9856 1291.52   10.20   91.25   81.99    2.10    1.12    1.26    1.10    1.31    1.11    1.34    1.16    1.25    2.31    2.31    2.30    2.31    8.83    2.30    0.02    54.55 2680.58   12.17   60.67
   1485.1380 1291.65   10.07   83.99   85.33    2.10    1.09    1.26    1.07    1.28    1.07    1.32    1.11    1.27    2.31    2.30    2.30    2.29    8.83    2.31    0.02    52.75 2680.77   12.17   60.65
   1485.2904 1291.79   10.20   85.33   81.31    2.10    1.07    1.22    1.05    1.28    1.05    1.31    1.09    1.24    2.31    2.31    2.30    2.30    8.83    2.30    0.02    52.38 2681.06   12.17   60.38
   1485.4428 1291.92   10.53   91.05   84.06    2.10    1.05    1.20    1.03    1.26    1.04    1.29    1.10    1.24    2.30    2.31    2.30    2.31    8.83    2.30    0.02    52.39 2681.51   12.17   59.81
   1485.5952 1292.05   10.75   90.68   85.93    2.10    1.03    1.17    1.00    1.24    1.02    1.28    1.09    1.26    2.32    2.30    2.33    2.33    8.83    2.31    0.02    53.76 2681.80   12.17   59.81
   1485.7476 1292.18   10.95   88.45   85.06    2.10    1.00    1.15    0.98    1.23    1.02    1.26    1.12    1.18    2.31    2.31    2.34    2.31    8.82    2.33    0.02    51.76 2682.03   12.17   59.81
   1485.9000 1292.32   11.13   85.35   81.64    2.10    0.97    1.16    0.95    1.24    0.96    1.30    1.03    1.20    2.31    2.32    2.31    2.35    8.82    2.32    0.02    51.10 2682.00   12.16   59.81
   1486.0524 1292.45   11.07   86.09   81.46    2.10    0.98    1.18    0.97    1.25    1.00    1.30    1.06    1.19    2.31    2.30    2.31    2.32    8.83    2.31    0.02    53.12 2682.29   12.16   59.81
   1486.2048 1292.59   11.02   86.10   79.94    2.10    1.02    1.19    1.01    1.26    1.03    1.30    1.09    1.21    2.30    2.30    2.31    2.30    8.83    2.30    0.02    54.67 2682.63   12.17   59.81
   1486.3572 1292.71   11.02   85.63   80.27    2.10    1.06    1.20    1.05    1.26    1.06    1.31    1.11    1.23    2.31    2.31    2.30    2.30    8.83    2.30    0.02    52.74 2682.95   12.17   59.81
   1486.5096 1292.85   10.96   88.08   82.88    2.09    1.09    1.23    1.08    1.27    1.09    1.32    1.14    1.23    2.31    2.31    2.31    2.29    8.83    2.30    0.02    53.74 2683.12   12.16   59.81
   1486.6620 1292.98   10.83   85.22   85.66    2.09    1.11    1.23    1.09    1.26    1.11    1.27    1.15    1.19    2.30    2.31    2.30    2.30    8.83    2.30    0.02    54.37 2683.66   12.17   59.81
   1486.8144 1293.12   10.78   88.77   92.01    2.09    1.09    1.22    1.06    1.27    1.07    1.28    1.10    1.22    2.31    2.30    2.29    2.30    8.83    2.30    0.02    49.72 2684.28   12.17   59.81
   1486.9668 1293.25   10.97   92.65   86.86    2.09    1.06    1.22    1.04    1.27    1.06    1.30    1.10    1.21    2.31    2.30    2.29    2.30    8.83    2.29    0.02    51.88 2684.48   12.17   60.06
   1487.1192 1293.38   11.21   88.00   80.47    2.09    1.05    1.22    1.03    1.27    1.05    1.29    1.11    1.18    2.31    2.31    2.29    2.30    8.83    2.31    0.02    53.74 2684.81   12.17   60.63
   1487.2716 1293.51   11.21   83.59   80.93    2.09    1.04    1.21    1.03    1.26    1.04    1.29    1.10    1.21    2.32    2.32    2.29    2.32    8.83    2.31    0.02    54.05 2685.49   12.17   60.67
   1487.4240 1293.65   11.12   85.26   76.85    2.09    1.04    1.21    1.03    1.26    1.03    1.29    1.08    1.19    2.34    2.38    2.32    2.31    8.83    2.34    0.02    53.61 2685.51   12.17   60.67
   1487.5764 1293.79   10.32   86.79   76.83    2.08    1.09    1.18    1.08    1.21    1.11    1.22    1.15    1.14    2.38    2.48    2.32    2.32    8.83    2.40    0.02    53.38 2685.65   12.17   60.67
   1487.7288 1293.90    8.67   81.48   79.90    2.08    1.06    1.14    1.02    1.19    1.03    1.22    1.07    1.19    2.33    2.41    2.33    2.32    8.84    2.42    0.02    49.72 2685.90   12.17   60.67
   1487.8812 1294.05    8.63   86.65   77.41    2.08    1.02    1.15    0.98    1.19    0.98    1.26    1.03    1.19    2.30    2.31    2.31    2.31    8.84    2.32    0.02    49.41 2686.36   12.17   60.67
   1488.0336 1294.18   10.57   87.04   75.81    2.08    1.00    1.16    0.97    1.20    0.98    1.25    1.03    1.18    2.30    2.30    2.29    2.32    8.83    2.30    0.02    52.25 2686.62   12.17   60.67
   1488.1860 1294.31   11.22   82.93   77.00    2.07    1.00    1.16    0.97    1.20    0.99    1.24    1.04    1.20    2.30    2.30    2.31    2.31    8.83    2.31    0.02    52.91 2687.08   12.17   60.67
   1488.3384 1294.45   11.25   86.16   82.33    2.07    1.01    1.16    0.99    1.20    0.99    1.23    1.04    1.19    2.30    2.30    2.32    2.32    8.82    2.31    0.02    54.01 2687.70   12.17   60.67
   1488.4908 1294.58   11.02   88.17   85.54    2.07    1.03    1.16    1.00    1.21    1.01    1.24    1.06    1.16    2.32    2.35    2.32    2.34    8.82    2.33    0.02    53.25 2686.29   12.16   60.67
   1488.6432 1294.71   10.92   84.91   80.24    2.07    1.04    1.20    1.00    1.24    1.00    1.28    1.02    1.18    2.34    2.36    2.33    2.36    8.82    2.35    0.02    51.47 2683.47   12.15   60.67
   1488.7956 1294.84   10.79   85.37   79.41    2.07    1.08    1.25    1.03    1.29    1.02    1.33    1.01    1.23    2.34    2.33    2.36    2.37    8.99    2.35    0.02    51.91 2682.45   12.14   60.67
   1488.9480 1294.98   10.79   89.48   76.76    2.07    1.12    1.26    1.06    1.30    1.03    1.31    1.04    1.19    2.32    2.31    2.34    2.36    8.96    2.35    0.02    49.12 2683.90   12.15   60.67
   1489.1004 1295.11   10.96   85.61   77.75    2.07    1.10    1.27    1.06    1.28    1.03    1.26    1.04    1.19    2.33    2.30    2.33    2.34    8.82    2.32    0.02    49.77 2684.14   12.15   60.67
   1489.2528 1295.25   10.99   82.28   82.41    2.07    1.06    1.27    1.07    1.32    1.05    1.29    1.06    1.25    2.35    2.31    2.31    2.34    8.82    2.33    0.02    53.08 2683.88   12.15   60.67
   1489.4052 1295.38   10.89   86.47   84.51    2.07    1.02    1.30    1.05    1.40    1.09    1.37    1.09    1.26    2.36    2.32    2.33    2.37    8.81    2.34    0.02    53.13 2685.24   12.15   60.67
   1489.5576 1295.51   10.54   93.09   89.69    2.07    1.08    1.34    1.09    1.47    1.19    1.47    1.19    1.30    2.32    2.31    2.31    2.33    8.82    2.32    0.02    52.05 2686.68   12.16   60.67
   1489.7100 1295.64   10.61   97.45   92.69    2.07    1.23    1.35    1.22    1.42    1.38    1.42    1.43    1.28    2.31    2.32    2.31    2.32    8.82    2.31    0.02    52.67 2687.43   12.16   60.67
   1489.8624 1295.78   11.04   96.24   88.29    2.08    1.31    1.37    1.26    1.42    1.36    1.44    1.44    1.31    2.32    2.30    2.30    2.31    8.83    2.31    0.02    52.50 2688.00   12.16   60.67
   1490.0148 1295.91   11.18   94.19   89.15    2.08    1.29    1.41    1.26    1.43    1.27    1.47    1.36    1.34    2.32    2.29    2.30    2.31    9.08    2.31    0.05    51.41 2688.26   12.16   60.67
   1490.1672 1296.04   11.29   86.85   83.83    2.08    1.26    1.42    1.23    1.46    1.24    1.46    1.30    1.36    2.31    2.33    2.29    2.31    9.04    2.31    0.05    53.05 2688.30   12.16   60.67
   1490.3196 1296.17   11.18   86.59   79.86    2.08    1.25    1.43    1.22    1.46    1.24    1.45    1.30    1.38    2.31    2.32    2.29    2.30    8.83    2.30    0.02    53.94 2688.99   12.16   60.67
   1490.4720 1296.31   11.00   87.16   80.60    2.08    1.24    1.41    1.21    1.44    1.22    1.47    1.30    1.35    2.30    2.29    2.29    2.31    8.83    2.30    0.02    51.92 2689.95   12.16   60.67
