~Version Information
 VERS.                  2.0:   CWLS log ASCII Standard -VERSION 2.0
 WRAP.                   NO:   One line per depth step
~Well Information Block
#MNEM.UNIT     VALUE/NAME     DESCRIPTION
#---------     -----------    ---------------------------
 STRT.M               914.0952: START DEPTH
 STOP.M              1646.9868: STOP DEPTH
 STEP.M                 0.1524: STEP DEPTH
 NULL.                 -999.25: NULL VALUE
 WTYP.                Deviated:  WELL TYPE
 DFWT.                        :  DIST FWL TEXT
 DFST.                        :  DIST FSL TEXT
 DMF .             Drill Floor:  DRILL MEAS FROM
 NREF.                    Grid:  NORTH REFERENCE
 HPTY.       Minimum Curvature:  HOLE POS TYPE
 DMOD.             Drill Model:  DRILL MOD DESC
 SVYD.                  Survey:  SURVEY DESC
 ILTD.               Lithology:  INTERP LTH DESC
 FTOP.          Formation Tops:  FORM TOPS DESC
 SON .        IN-XX-0907787982:  JOB NUMBER
 PDAT.          Mean Sea Level:  PERMANENT DATUM
 UWI .                      NA:  UNIQUE WELL IDENTIFIER
 API .                      NA:  API NUMBER
 MWDS.                  Taloja:  MWD SHOP
 JOBN.        IN-XX-0907787982:  JOB TICKET NUMB
 RIG .                   VG_9:  RIG NAME
 DOE .                      NA:  DOE NUMBER
 CNTY.                       .:  COUNTY NAME
 DCON.         Sperry Drilling:  DIRECTNL CONTR
 UNIT.                11175629:  LOGGING EQUIPMENT ID
 GCDE.     Generic Lat/Long's, Degrees, -180 ==> +180:  GEO COORD DESC
 CCDE.     Indian 1975 (Zone 2A) Thailand CM 74:  CART COORD DESC
 GGSY.                      LL:  GEO GRID SYS
 CGSY.          SS INDIAN-CM74:  CART GRID SYS
 GREF.     Ellipsoid World Geodetic System :  GEO REFERENCE
 MMDL.            bggm2021.dat:  MAGNETIC MODEL
 MMDD.          05 April, 2022:  MAG DATA DATE
 MDS .              Win MagUTM:  MAG DATA SOURCE
 LLGR.      Latitude/Longitude:  LLGROUP
 XYGR.     Asian Coordinate Systems:  XYGROUP
 LOC .                        :  LOCATION
 TVDS.m                  64.55:  TVDSS CORRECTN
 LATI.deg                25.30:  LATITUDE
 LONG.deg                71.77:  LONGITUDE
 WHNS.m                   0.00:  WELL HEAD N/S
 WHEW.m                   0.00:  WELL HEAD E/W
 UTMX.m             2051879.80:  UTM X
 UTMY.m              878801.73:  UTM Y
 DFWL.m                   0.00:  DISTANCE FWL
 DFSL.m                   0.00:  DISTANCE FSL
 SDEP.m                   0.00:  START DEPTH
 TDD .m                   0.00:  TOTAL DEPTH (DRILLER)
 VSDR.deg               350.40:  VERT SEC DIRECT
 GVFD.g                   1.00:  GRAVITY FIELD
 MFLD.nT              45311.10:  MAGNETIC FIELD
 MDIP.deg                40.06:  MAGNETIC DIP
 MDEC.deg                 1.01:  MAGNETIC DECL
 GRDC.deg                -0.98:  GRID CORRECTION
 AZTC.deg                 1.99:  AZM TOTAL CORR
 EPD .m                   0.00:  ELEVATION
 EGL .m                  57.80:  GROUND ELEVATION
 WDMS.m                   0.00:  WD ELEV
 APD .m                  64.55:  DEPTH ABOVE PD
 AGAP.m                   6.75:  AIR GAP
 MMDE.m                   0.00:  MAGUTM CALC DEP
 CMER.deg                74.00:  CENTRL MERIDIAN
 DEP .m                 915.49:  DEPTH
 VSC .                       0:  VS TO CLOSURE
 MAGU.                 1603544:  MAGUTM CHECKSUM
~Curve Information Block
#MNEM.UNIT                 API CODE     Curve Description
#---------               -----------    ---------------------------
 DEPT.M                 00 000 000 000:  Depth
 TVD .m                 00 000 000 000:  True Vertical Depth
 SROP.m/hr              00 000 000 000:  Smoothed Rate of Penetration
 SGRC.api               00 000 000 000:  Smoothed Gamma Ray Combined Borehole Corrected
 ABG .api               00 000 000 000:  Smoothed At Bit Gamma Ray Combined BC
 SFXE.hr                00 000 000 000:  Smoothed Formation Exposure Time
 SEXP.ohmm              00 000 000 000:  Smoothed BC Extra Shallow Phase Resistivity
 SEXA.ohmm              00 000 000 000:  Smoothed BC Extra Shallow Attenuation Resistivity
 SESP.ohmm              00 000 000 000:  Smoothed BC Shallow Phase Resistivity
 SESA.ohmm              00 000 000 000:  Smoothed BC Shallow Attenuation Resistivity
 SEMP.ohmm              00 000 000 000:  Smoothed BC Medium Phase Resistivity
 SEMA.ohmm              00 000 000 000:  Smoothed BC Medium Attenuation Resistivity
 SEDP.ohmm              00 000 000 000:  Smoothed BC Deep Phase Resistivity
 SEDA.ohmm              00 000 000 000:  Smoothed BC Deep Attenuation Resistivity
 ALCDTQ.g/cc            00 000 000 000:  ALD Comp Density T-Quad
 ALCDRQ.g/cc            00 000 000 000:  ALD Comp Density R-Quad
 ALCDBQ.g/cc            00 000 000 000:  ALD Comp Density B-Quad
 ALCDLQ.g/cc            00 000 000 000:  ALD Comp Density L-Quad
 HSI .in                00 000 000 000:  ALD Hole Size Indicator
 SBD2.g/cc              00 000 000 000:  Smoothed Bulk Density
 SCO2.g/cc              00 000 000 000:  Smoothed Standoff Correction
 TNPS.pu                00 000 000 000:  CTN Porosity Sandstone
 PAP .psig              00 000 000 000:  Smoothed PWD Annular Pressure
 ECD .ppg               00 000 000 000:  Smoothed Equivalent Circulating Density
 TEMP.degC              00 000 000 000:  Temperature
#Other Information

#
~A   DEPT      TVD    SROP    SGRC     ABG    SFXE    SEXP    SEXA    SESP    SESA    SEMP    SEMA    SEDP    SEDA   ALCDTQ  ALCDRQ  ALCDBQ  ALCDLQ    HSI    SBD2    SCO2     TNPS     PAP     ECD    TEMP   
# ...
   1532.2296 1332.64    8.41   87.60   69.47    2.50    5.75    6.28    5.56    6.42    5.40    6.00    5.42    6.04    2.30    2.33    2.31    2.32    8.83    2.31    0.02    43.75 2760.89   12.14   62.38
   1532.3820 1332.71    5.97   82.32   72.71    2.47    5.73    6.33    5.60    6.62    5.40    6.08    5.44    6.36    2.36    2.34    2.33    2.38    8.63    2.33    0.00    47.17 2759.49   12.14   62.38
   1532.5344 1332.89    7.55   84.48   75.03    2.47    5.60    6.67    5.49    6.75    5.35    6.16    5.38    5.98    2.45    2.36    2.33    2.42    8.54    2.44   -0.01    46.91 2759.07   12.13   62.38
   1532.6868 1333.02   13.18   76.32   79.09    2.45    5.56    6.36    5.50    6.58    5.48    6.11    5.51    5.96    2.51    2.37    2.33    2.41    9.32    2.52    0.09    43.55 2760.02   12.14   62.38
   1532.8392 1333.15   12.45   72.89   84.22    2.45    5.54    6.28    5.45    6.56    5.43    6.03    5.49    6.17    2.38    2.33    2.31    2.35    9.32    2.37    0.09    43.87 2760.80   12.14   62.38
   1532.9916 1333.28   12.76   77.29   76.51    2.45    5.22    6.12    5.09    6.47    5.02    6.09    5.16    6.42    2.32    2.32    2.34    2.34    8.82    2.33    0.02    45.17 2760.97   12.14   62.38
   1533.1440 1333.42   13.88   75.41   66.84    2.45    4.91    6.21    4.82    6.33    4.79    6.07    5.07    6.50    2.31    2.34    2.53    2.44    8.81    2.48   -0.07    46.54 2761.42   12.14   62.38
   1533.2964 1333.55   13.98   75.87   67.15    2.46    4.69    6.02    4.64    6.22    4.62    6.21    4.93    6.49    2.33    2.42    2.61    2.53    8.81    2.75   -0.13    50.38 2762.13   12.14   62.38
   1533.4488 1333.68   14.12   69.48   74.98    2.46    4.82    5.90    4.74    6.23    4.68    6.11    4.96    6.42    2.37    2.49    2.57    2.53    8.81    2.70   -0.05    48.30 2762.64   12.14   62.50
   1533.6012 1333.82   14.21   65.20   76.04    2.46    5.05    5.71    4.82    5.94    4.79    5.74    5.10    6.12    2.36    2.39    2.35    2.37    8.82    2.39    0.02    48.86 2763.07   12.14   62.79
   1533.7536 1333.94   14.17   68.66   70.67    2.46    4.88    5.75    4.57    5.90    4.48    5.74    4.80    6.26    2.30    2.32    2.33    2.35    8.72    2.31    0.01    51.04 2763.80   12.14   63.12
   1533.9060 1334.08   14.20   76.83   58.58    2.46    4.60    5.67    4.56    5.76    4.33    5.73    4.69    6.38    2.32    2.35    2.35    2.38    8.57    2.36    0.00    51.18 2764.08   12.14   62.75
   1534.0584 1334.21   13.55   77.51   59.84    2.47    4.44    5.49    4.51    5.84    4.45    5.69    4.77    6.31    2.36    2.35    2.33    2.36    9.04    2.36    0.05    48.94 2764.27   12.14   63.19
   1534.2108 1334.35   13.50   74.37   71.73    2.47    4.47    5.53    4.48    5.97    4.62    5.80    4.87    6.31    2.32    2.30    2.30    2.32    8.86    2.31    0.03    48.08 2764.83   12.15   63.14
   1534.3632 1334.47   13.90   77.93   71.26    2.47    4.59    5.78    4.56    6.11    4.68    5.98    5.01    6.59    2.31    2.29    2.30    2.30    8.83    2.31    0.02    47.69 2765.38   12.15   63.01
   1534.5156 1334.61   13.91   76.78   70.66    2.47    4.90    5.98    4.83    6.13    4.94    6.01    5.30    6.49    2.29    2.30    2.29    2.31    8.83    2.30    0.02    46.61 2765.89   12.15   63.23
   1534.6680 1334.74   14.18   83.93   72.66    2.48    5.18    6.14    5.07    6.20    5.12    6.00    5.38    6.23    2.29    2.29    2.30    2.32    8.83    2.30    0.02    44.90 2764.23   12.14   63.23
   1534.8204 1334.87   14.03   84.72   75.36    2.48    5.32    6.06    5.21    6.33    5.17    5.97    5.35    6.14    2.29    2.29    2.33    2.31    8.82    2.30    0.02    45.60 2761.61   12.13   63.23
   1534.9728 1335.00   13.62   85.32   78.97    2.49    5.32    6.24    5.22    6.30    5.14    5.94    5.28    6.12    2.30    2.31    2.32    2.30    8.82    2.31    0.02    47.47 2763.27   12.13   63.23
   1535.1252 1335.14   13.30   79.90   77.23    2.50    5.25    6.13    5.17    6.24    5.10    5.93    5.20    6.11    2.32    2.32    2.30    2.30    8.82    2.32    0.02    48.86 2765.35   12.14   63.23
   1535.2776 1335.27   12.82   76.75   78.71    2.52    4.93    5.97    4.91    6.24    4.86    5.86    5.03    6.17    2.31    2.30    2.29    2.31    8.83    2.30    0.02    50.03 2766.05   12.14   63.23
   1535.4300 1335.40   12.99   83.34   75.61    2.52    4.76    5.87    4.76    6.21    4.73    5.88    4.94    6.20    2.31    2.29    2.28    2.37    8.87    2.32    0.02    52.21 2766.21   12.14   63.23
   1535.5824 1335.53   13.04   83.78   76.13    2.52    4.68    5.80    4.65    6.04    4.66    5.92    4.92    6.16    2.31    2.30    2.30    2.37    8.88    2.32    0.02    49.67 2766.43   12.14   63.23
   1535.7348 1335.66   12.95   83.24   80.50    2.52    4.58    5.75    4.54    6.05    4.55    5.98    4.95    6.19    2.30    2.29    2.31    2.31    8.82    2.30    0.02    47.58 2766.68   12.14   63.23
   1535.8872 1335.79   13.79   79.16   79.85    2.53    4.68    5.95    4.65    6.16    4.70    6.06    5.10    6.57    2.30    2.35    2.36    2.32    9.06    2.34    0.04    48.26 2766.97   12.14   63.23
   1536.0396 1335.97   12.33   78.26   82.16    1.30    4.97    5.85    4.91    6.20    4.98    6.03    5.30    6.48    2.34    2.45    2.39    2.33    9.30    2.43    0.06    46.19 2766.92   12.14   63.23
   1536.1920 1336.06    8.02   77.82   81.75    1.30    5.19    6.02    5.00    6.19    4.96    6.08    5.18    6.69    2.37    2.42    2.32    2.34    9.30    2.41    0.06    45.33 2767.39   12.14   63.23
   1536.3444 1336.16    2.25   74.99   71.62    1.24    5.21    5.99    5.04    6.29    4.88    6.21    5.14    6.87    2.34    2.32    2.27    2.30    8.84    2.31    0.02    46.05 2767.82   12.14   63.10
   1536.4968 1336.33    7.00   76.59   72.92    1.22    5.35    6.38    5.24    6.56    5.08    6.37    5.35    6.83    2.30    2.28    2.27    2.28    8.84    2.28    0.02    47.35 2768.03   12.14   62.83
   1536.6492 1336.46   12.91   78.79   74.36    1.24    5.59    6.76    5.45    6.96    5.39    6.60    5.65    6.56    2.29    2.28    2.28    2.27    8.84    2.28    0.02    45.84 2768.66   12.14   63.01
   1536.8016 1336.60   12.45   85.64   80.07    1.23    5.75    7.04    5.63    7.20    5.55    6.79    5.79    7.00    2.28    2.26    2.25    2.27    8.84    2.27    0.02    44.13 2769.39   12.15   63.23
   1536.9540 1336.72    8.60   86.12   80.95    1.23    6.17    7.17    6.03    7.38    5.93    6.94    6.06    6.89    2.27    2.27    2.37    2.31    9.13    2.34   -0.04    42.35 2770.52   12.15   63.23
   1537.1064 1336.85    0.58   90.50   82.64    1.22    7.01    7.12    6.70    7.32    6.55    6.94    6.53    7.10    2.30    2.37    2.67    2.48    9.13    2.51   -0.04    43.35 2770.71   12.15   63.23
   1537.2588 1336.99    3.08   78.43   81.66    1.21    7.28    7.45    6.81    7.65    6.52    6.93    6.56    7.27    2.52    2.54    2.61    2.63    9.35    2.72    0.06    41.24 2771.58   12.15   63.23
   1537.4112 1337.12   11.65   72.07   77.75    1.20    6.59    7.70    6.12    7.88    5.67    7.04    5.88    7.55    2.67    2.61    2.46    2.63    9.57    2.78    0.15    39.44 2771.43   12.15   63.23
   1537.5636 1337.28    9.26   73.07   63.11    1.19    5.94    7.79    5.88    7.82    5.54    7.24    5.80    7.99    2.46    2.32    2.20    2.27    9.42    2.53    0.11    44.06 2771.57   12.15   63.23
   1537.7160 1337.35    6.08   82.13   65.27    1.17    5.72    7.72    5.70    7.94    5.69    7.49    5.91    7.99    2.21    2.14    2.10    2.13    9.07    2.18    0.02    50.84 2771.61   12.15   63.23
   1537.8684 1337.51    5.70   86.03   75.47    1.17    5.55    7.66    5.55    7.92    5.63    7.65    6.01    8.06    2.10    2.08    2.05    2.08    9.07    2.09    0.02    53.86 2772.22   12.15   63.23
   1538.0208 1337.65   11.83   74.98   73.65    1.17    5.41    7.73    5.42    8.08    5.45    7.94    6.15    8.60    2.05    2.05    2.06    2.06    8.78    2.05   -0.01    56.30 2773.32   12.15   63.23
