~Version Information
 VERS.                  2.0:   CWLS log ASCII Standard -VERSION 2.0
 WRAP.                   NO:   One line per depth step
~Well Information Block
#MNEM.UNIT     VALUE/NAME     DESCRIPTION
#---------     -----------    ---------------------------
 STRT.M               914.0952: START DEPTH
 STOP.M              1646.9868: STOP DEPTH
 STEP.M                 0.1524: STEP DEPTH
 NULL.                 -999.25: NULL VALUE
 WTYP.                Deviated:  WELL TYPE
 DFWT.                        :  DIST FWL TEXT
 DFST.                        :  DIST FSL TEXT
 DMF .             Drill Floor:  DRILL MEAS FROM
 NREF.                    Grid:  NORTH REFERENCE
 HPTY.       Minimum Curvature:  HOLE POS TYPE
 DMOD.             Drill Model:  DRILL MOD DESC
 SVYD.                  Survey:  SURVEY DESC
 ILTD.               Lithology:  INTERP LTH DESC
 FTOP.          Formation Tops:  FORM TOPS DESC
 SON .        IN-XX-0907787982:  JOB NUMBER
 PDAT.          Mean Sea Level:  PERMANENT DATUM
 UWI .                      NA:  UNIQUE WELL IDENTIFIER
 API .                      NA:  API NUMBER
 MWDS.                  Taloja:  MWD SHOP
 JOBN.        IN-XX-0907787982:  JOB TICKET NUMB
 RIG .                   VG_9:  RIG NAME
 DOE .                      NA:  DOE NUMBER
 CNTY.                       .:  COUNTY NAME
 DCON.         Sperry Drilling:  DIRECTNL CONTR
 UNIT.                11175629:  LOGGING EQUIPMENT ID
 GCDE.     Generic Lat/Long's, Degrees, -180 ==> +180:  GEO COORD DESC
 CCDE.     Indian 1975 (Zone 2A) Thailand CM 74:  CART COORD DESC
 GGSY.                      LL:  GEO GRID SYS
 CGSY.          SS INDIAN-CM74:  CART GRID SYS
 GREF.     Ellipsoid World Geodetic System :  GEO REFERENCE
 MMDL.            bggm2021.dat:  MAGNETIC MODEL
 MMDD.          05 April, 2022:  MAG DATA DATE
 MDS .              Win MagUTM:  MAG DATA SOURCE
 LLGR.      Latitude/Longitude:  LLGROUP
 XYGR.     Asian Coordinate Systems:  XYGROUP
 LOC .                        :  LOCATION
 TVDS.m                  64.55:  TVDSS CORRECTN
 LATI.deg                25.30:  LATITUDE
 LONG.deg                71.77:  LONGITUDE
 WHNS.m                   0.00:  WELL HEAD N/S
 WHEW.m                   0.00:  WELL HEAD E/W
 UTMX.m             2051879.80:  UTM X
 UTMY.m              878801.73:  UTM Y
 DFWL.m                   0.00:  DISTANCE FWL
 DFSL.m                   0.00:  DISTANCE FSL
 SDEP.m                   0.00:  START DEPTH
 TDD .m                   0.00:  TOTAL DEPTH (DRILLER)
 VSDR.deg               350.40:  VERT SEC DIRECT
 GVFD.g                   1.00:  GRAVITY FIELD
 MFLD.nT              45311.10:  MAGNETIC FIELD
 MDIP.deg                40.06:  MAGNETIC DIP
 MDEC.deg                 1.01:  MAGNETIC DECL
 GRDC.deg                -0.98:  GRID CORRECTION
 AZTC.deg                 1.99:  AZM TOTAL CORR
 EPD .m                   0.00:  ELEVATION
 EGL .m                  57.80:  GROUND ELEVATION
 WDMS.m                   0.00:  WD ELEV
 APD .m                  64.55:  DEPTH ABOVE PD
 AGAP.m                   6.75:  AIR GAP
 MMDE.m                   0.00:  MAGUTM CALC DEP
 CMER.deg                74.00:  CENTRL MERIDIAN
 DEP .m                 915.49:  DEPTH
 VSC .                       0:  VS TO CLOSURE
 MAGU.                 1603544:  MAGUTM CHECKSUM
~Curve Information Block
#MNEM.UNIT                 API CODE     Curve Description
#---------               -----------    ---------------------------
 DEPT.M                 00 000 000 000:  Depth
 TVD .m                 00 000 000 000:  True Vertical Depth
 SROP.m/hr              00 000 000 000:  Smoothed Rate of Penetration
 SGRC.api               00 000 000 000:  Smoothed Gamma Ray Combined Borehole Corrected
 ABG .api               00 000 000 000:  Smoothed At Bit Gamma Ray Combined BC
 SFXE.hr                00 000 000 000:  Smoothed Formation Exposure Time
 SEXP.ohmm              00 000 000 000:  Smoothed BC Extra Shallow Phase Resistivity
 SEXA.ohmm              00 000 000 000:  Smoothed BC Extra Shallow Attenuation Resistivity
 SESP.ohmm              00 000 000 000:  Smoothed BC Shallow Phase Resistivity
 SESA.ohmm              00 000 000 000:  Smoothed BC Shallow Attenuation Resistivity
 SEMP.ohmm              00 000 000 000:  Smoothed BC Medium Phase Resistivity
 SEMA.ohmm              00 000 000 000:  Smoothed BC Medium Attenuation Resistivity
 SEDP.ohmm              00 000 000 000:  Smoothed BC Deep Phase Resistivity
 SEDA.ohmm              00 000 000 000:  Smoothed BC Deep Attenuation Resistivity
 ALCDTQ.g/cc            00 000 000 000:  ALD Comp Density T-Quad
 ALCDRQ.g/cc            00 000 000 000:  ALD Comp Density R-Quad
 ALCDBQ.g/cc            00 000 000 000:  ALD Comp Density B-Quad
 ALCDLQ.g/cc            00 000 000 000:  ALD Comp Density L-Quad
 HSI .in                00 000 000 000:  ALD Hole Size Indicator
 SBD2.g/cc              00 000 000 000:  Smoothed Bulk Density
 SCO2.g/cc              00 000 000 000:  Smoothed Standoff Correction
 TNPS.pu                00 000 000 000:  CTN Porosity Sandstone
 PAP .psig              00 000 000 000:  Smoothed PWD Annular Pressure
 ECD .ppg               00 000 000 000:  Smoothed Equivalent Circulating Density
 TEMP.degC              00 000 000 000:  Temperature
#Other Information

#
~A   DEPT      TVD    SROP    SGRC     ABG    SFXE    SEXP    SEXA    SESP    SESA    SEMP    SEMA    SEDP    SEDA   ALCDTQ  ALCDRQ  ALCDBQ  ALCDLQ    HSI    SBD2    SCO2     TNPS     PAP     ECD    TEMP   
# ...
   1110.2340  966.60   37.97   41.16   46.24    1.32    5.61    6.69    5.68    7.21    5.72    6.63    5.65    6.23    2.31    2.21    2.06    2.21    9.83    2.31    0.09    47.66 1985.00   12.04   52.12
   1110.3864  966.73   37.96   39.19   38.72    1.32    5.69    6.65    5.76    7.39    5.86    6.80    5.86    5.99    2.13    2.08    2.05    2.06    9.83    2.20    0.09    47.80 1985.00   12.04   52.12
   1110.5388  966.86   37.31   29.99   32.42    1.32    5.83    6.67    5.80    7.39    5.99    6.94    6.03    5.95    2.07    2.07    2.08    2.09    9.74    2.09    0.08    45.00 1985.19   12.04   52.12
   1110.6912  966.99   37.44   31.09   28.52    1.32    6.15    7.42    6.02    7.39    6.07    7.01    6.24    6.67    2.09    2.07    2.10    2.11    9.65    2.09    0.08    41.26 1985.75   12.04   52.12
   1110.8436  967.13   36.84   29.57   22.78    1.33    6.42    7.42    6.21    7.33    6.12    6.95    6.36    6.80    2.11    2.09    2.11    2.12    9.55    2.11    0.07    39.91 1986.53   12.04   52.12
   1110.9960  967.24   34.22   25.83   24.24    1.33    6.45    7.00    6.16    7.18    5.98    7.01    6.27    7.15    2.12    2.12    2.12    2.13    9.46    2.11    0.06    36.14 1986.92   12.04   52.12
   1111.1484  967.38   34.66   31.46   26.35    1.33    6.29    6.66    6.02    7.09    5.81    7.14    6.11    7.26    2.12    2.13    2.11    2.11    9.36    2.12    0.06    37.93 1987.23   12.04   52.12
   1111.3008  967.51   37.06   36.42   32.30    1.33    6.01    6.72    5.89    7.19    5.77    7.24    6.10    6.92    2.16    2.16    2.10    2.16    9.27    2.14    0.05    37.15 1988.41   12.05   52.12
   1111.4532  967.65   38.18   48.93   42.58    1.33    5.94    6.75    5.92    7.40    5.96    7.30    6.30    7.12    2.17    2.16    2.10    2.17    9.18    2.15    0.04    40.10 1988.13   12.04   52.12
   1111.6056  967.77   37.57   46.40   45.48    1.33    6.15    7.18    6.19    7.65    6.34    7.47    6.57    7.36    2.17    2.14    2.10    2.14    9.08    2.14    0.03    42.52 1987.90   12.04   52.12
   1111.7580  967.90   36.12   42.30   33.93    1.33    6.59    7.08    6.47    7.59    6.59    7.42    6.82    6.95    2.13    2.12    2.12    2.11    8.99    2.12    0.03    40.35 1988.93   12.04   52.12
   1111.9104  968.04   36.53   31.10   27.28    1.33    6.90    7.08    6.62    7.75    6.64    7.63    6.80    7.78    2.13    2.14    2.15    2.12    8.99    2.13    0.03    38.70 1989.41   12.05   52.12
   1112.0628  968.17   37.98   29.72   27.16    1.33    7.17    6.98    6.85    7.60    6.66    7.43    6.87    7.49    2.14    2.16    2.19    2.15    8.99    2.15    0.03    37.75 1989.59   12.05   52.12
   1112.2152  968.29   38.07   33.38   27.22    1.33    7.18    6.97    6.88    7.58    6.63    7.40    6.80    7.43    2.18    2.19    2.15    2.15    9.00    2.17    0.03    38.59 1989.59   12.04   52.12
   1112.3676  968.43   37.69   29.55   27.68    1.33    7.13    7.13    6.86    7.65    6.59    7.41    6.75    7.27    2.12    2.11    2.11    2.11    9.00    2.12    0.03    39.29 1990.16   12.05   52.12
   1112.5200  968.56   37.35   27.76   25.86    1.33    7.01    7.71    6.80    7.96    6.58    7.47    6.71    6.68    2.10    2.10    2.11    2.11    9.01    2.11    0.03    39.87 1990.92   12.05   52.12
   1112.6724  968.69   36.86   22.28   26.47    1.33    6.86    7.04    6.73    7.96    6.56    7.40    6.53    7.24    2.09    2.10    2.10    2.13    9.01    2.11    0.03    40.42 1992.10   12.05   52.12
   1112.8248  968.82   36.81   24.15   26.59    1.33    6.70    7.14    6.59    7.82    6.49    7.40    6.58    7.40    2.10    2.10    2.10    2.10    9.01    2.11    0.03    37.81 1991.68   12.05   52.12
   1112.9772  968.95   36.51   24.83   25.59    1.33    6.57    7.19    6.49    7.58    6.42    7.40    6.60    7.64    2.12    2.10    2.09    2.09    9.02    2.10    0.02    37.57 1992.41   12.05   52.12
   1113.1296  969.07   34.19   34.50   25.90    1.33    6.48    7.19    6.39    7.35    6.36    7.38    6.60    7.61    2.12    2.10    2.09    2.09    9.01    2.10    0.02    38.36 1993.33   12.06   52.52
   1113.2820  969.21   32.36   31.38   28.31    1.33    6.42    7.19    6.26    7.14    6.25    7.32    6.60    6.54    2.10    2.11    2.10    2.09    9.00    2.10    0.03    37.96 1992.46   12.05   52.98
   1113.4344  969.33   34.45   27.18   27.48    1.33    6.36    6.77    6.26    7.51    6.29    7.32    6.50    7.54    2.13    2.10    2.10    2.09    9.01    2.10    0.03    37.04 1993.53   12.05   52.98
   1113.5868  969.48   33.57   26.78   29.92    1.15    6.38    6.69    6.26    7.44    6.28    7.24    6.50    7.42    2.11    2.10    2.09    2.10    9.03    2.09    0.03    37.32 1994.07   12.06   52.98
   1113.7392  969.67   15.18   23.94   25.87    0.97    6.37    6.71    6.24    7.25    6.23    7.14    6.49    7.04    2.09    2.10    2.09    2.09    9.03    2.09    0.03    37.75 1994.00   12.05   52.98
   1113.8916  969.71    9.90   25.03   27.55    0.79    6.23    6.79    6.13    6.90    6.12    7.01    6.39    6.55    2.10    2.12    2.08    2.10    9.03    2.09    0.03    37.05 1994.73   12.06   52.98
   1114.0440  969.78    5.64   24.45   24.82    0.61    6.15    6.71    6.06    6.96    6.10    7.01    6.32    6.59    2.10    2.13    2.11    2.12    9.02    2.11    0.03    35.26 1996.26   12.06   52.98
   1114.1964  969.99   21.03   31.49   22.57    0.43    6.15    6.55    6.07    6.88    6.10    6.89    6.27    6.50    2.12    2.17    2.15    2.14    9.01    2.15    0.03    36.43 1996.58   12.07   52.98
   1114.3488  970.13   35.54   29.45   21.97    0.43    6.20    6.25    6.13    6.67    6.09    6.63    6.18    6.30    2.14    2.19    2.18    2.16    9.00    2.18    0.03    36.34 1996.85   12.07   52.98
   1114.5012  970.25   35.56   26.32   22.93    0.43    6.17    6.25    6.03    6.60    5.99    6.46    6.00    6.39    2.17    2.16    2.16    2.16    8.99    2.17    0.03    37.22 1997.29   12.07   52.98
   1114.6536  970.39   35.46   28.36   24.36    0.43    6.01    6.00    5.79    6.37    5.71    6.24    5.72    6.30    2.17    2.12    2.14    2.15    8.98    2.15    0.03    35.68 1997.55   12.07   52.98
   1114.8060  970.51   35.00   20.59   23.47    0.43    5.82    5.71    5.61    6.14    5.51    6.04    5.52    6.16    2.15    2.10    2.12    2.15    8.98    2.13    0.03    34.44 1997.97   12.07   52.98
   1114.9584  970.67   33.40   23.19   20.69    0.42    5.48    5.20    5.39    5.77    5.30    5.78    5.31    5.87    2.12    2.10    2.09    2.16    9.05    2.12    0.03    30.30 1998.35   12.07   52.98
   1115.1108  970.78   26.34   22.03   22.36    0.42    5.16    5.07    5.11    5.58    5.02    5.59    5.10    5.95    2.12    2.10    2.07    2.08    9.11    2.09    0.03    31.44 1998.66   12.07   52.98
   1115.2632  970.89   20.81   28.85   22.76    0.42    4.72    4.93    4.68    5.49    4.67    5.56    4.84    5.55    2.07    2.07    2.03    2.02    9.18    2.07    0.03    33.80 1999.78   12.07   52.98
   1115.4156  971.04   29.22   32.87   27.01    0.42    4.40    4.88    4.42    5.41    4.50    5.57    4.74    5.41    2.02    2.03    2.00    1.98    9.25    2.02    0.03    36.89 1999.10   12.07   52.98
   1115.5680  971.17   36.30   33.11   31.82    0.42    4.17    4.96    4.32    5.31    4.53    5.60    4.86    5.70    1.98    2.00    2.00    1.98    9.25    1.99    0.03    36.13 1998.76   12.06   52.98
   1115.7204  971.30   36.62   44.00   40.22    0.42    4.40    5.01    4.59    5.61    4.88    5.79    5.24    6.08    1.96    1.98    2.04    2.03    9.25    1.99    0.03    37.50 1999.68   12.07   52.98
   1115.8728  971.42   36.41   40.55   47.68    0.42    4.85    4.94    4.93    5.57    5.20    5.74    5.46    5.87    2.06    2.07    2.10    2.11    9.12    2.09    0.03    38.02 2001.33   12.08   52.98
   1116.0252  971.57   35.79   32.40   42.71    0.42    5.24    5.05    5.17    5.56    5.30    5.68    5.50    5.94    2.11    2.10    2.09    2.12    9.00    2.11    0.03    36.14 2000.87   12.07   52.98
